[
 {
   "UID": 230,
   "ID": 208,
   "Name": "Cultural Landscape and Archaeological Remains of the Bamiyan Valley",
   "DateInscribed": 2003,
   "Longitude": 67.82525,
   "Latitude": 34.84694,
   "Hectares": 158.9265,
   "Category": "Cultural",
   "CategoryShort": "C",
   "Countries": "Afghanistan"
 },
 {
   "UID": 234,
   "ID": 211,
   "Name": "Minaret and Archaeological Remains of Jam",
   "DateInscribed": 2002,
   "Longitude": 64.51588889,
   "Latitude": 34.39641667,
   "Hectares": 70,
   "Category": "Cultural",
   "CategoryShort": "C",
   "Countries": "Afghanistan"
 },
 {
   "UID": 1590,
   "ID": 569,
   "Name": "Historic Centres of Berat and Gjirokastra",
   "DateInscribed": 2005,
   "Longitude": 20.13333333,
   "Latitude": 40.06944444,
   "Hectares": 58.9,
   "Category": "Cultural",
   "CategoryShort": "C",
   "Countries": "Albania"
 },
 {
   "UID": 1563,
   "ID": 570,
   "Name": "Butrint",
   "DateInscribed": 1992,
   "Longitude": 20.02611111,
   "Latitude": 39.75111111,
   "Hectares": null,
   "Category": "Cultural",
   "CategoryShort": "C",
   "Countries": "Albania"
 },
 {
   "UID": 111,
   "ID": 102,
   "Name": "Al Qal'a of Beni Hammad",
   "DateInscribed": 1980,
   "Longitude": 4.78684,
   "Latitude": 35.81844,
   "Hectares": 150,
   "Category": "Cultural",
   "CategoryShort": "C",
   "Countries": "Algeria"
 },
 {
   "UID": 198,
   "ID": 179,
   "Name": "Tassili n'Ajjer",
   "DateInscribed": 1982,
   "Longitude": 9,
   "Latitude": 25.5,
   "Hectares": 7200000,
   "Category": "Mixed",
   "CategoryShort": "C/N",
   "Countries": "Algeria"
 },
 {
   "UID": 209,
   "ID": 188,
   "Name": "M'Zab Valley",
   "DateInscribed": 1982,
   "Longitude": 3.68333,
   "Latitude": 32.48333,
   "Hectares": 665.03,
   "Category": "Cultural",
   "CategoryShort": "C",
   "Countries": "Algeria"
 },
 {
   "UID": 212,
   "ID": 191,
   "Name": "Djémila",
   "DateInscribed": 1982,
   "Longitude": 5.73667,
   "Latitude": 36.32056,
   "Hectares": 30.6,
   "Category": "Cultural",
   "CategoryShort": "C",
   "Countries": "Algeria"
 },
 {
   "UID": 214,
   "ID": 193,
   "Name": "Tipasa",
   "DateInscribed": 1982,
   "Longitude": 2.383333333,
   "Latitude": 36.55,
   "Hectares": 52.16,
   "Category": "Cultural",
   "CategoryShort": "C",
   "Countries": "Algeria"
 },
 {
   "UID": 215,
   "ID": 194,
   "Name": "Timgad",
   "DateInscribed": 1982,
   "Longitude": 6.468861111,
   "Latitude": 35.48416667,
   "Hectares": 90.54,
   "Category": "Cultural",
   "CategoryShort": "C",
   "Countries": "Algeria"
 },
 {
   "UID": 667,
   "ID": 565,
   "Name": "Kasbah of Algiers",
   "DateInscribed": 1992,
   "Longitude": 3.06028,
   "Latitude": 36.78333,
   "Hectares": 54.7,
   "Category": "Cultural",
   "CategoryShort": "C",
   "Countries": "Algeria"
 },
 {
   "UID": 1487,
   "ID": 1160,
   "Name": "Madriu-Perafita-Claror Valley",
   "DateInscribed": 2004,
   "Longitude": 1.595555556,
   "Latitude": 42.49472222,
   "Hectares": 4247,
   "Category": "Cultural",
   "CategoryShort": "C",
   "Countries": "Andorra"
 },
 {
   "UID": 2128,
   "ID": 1511,
   "Name": "Mbanza Kongo, Vestiges of the Capital of the former Kingdom of Kongo",
   "DateInscribed": 2017,
   "Longitude": 14.24972222,
   "Latitude": -6.268888889,
   "Hectares": 89.29,
   "Category": "Cultural",
   "CategoryShort": "C",
   "Countries": "Angola"
 },
 {
   "UID": 2086,
   "ID": 1499,
   "Name": "Antigua Naval Dockyard and Related Archaeological Sites",
   "DateInscribed": 2016,
   "Longitude": -61.76166667,
   "Latitude": 17.00694444,
   "Hectares": 255,
   "Category": "Cultural",
   "CategoryShort": "C",
   "Countries": "Antigua and Barbuda"
 },
 {
   "UID": 160,
   "ID": 145,
   "Name": "Los Glaciares National Park",
   "DateInscribed": 1981,
   "Longitude": -73.24944,
   "Latitude": -50,
   "Hectares": 726927,
   "Category": "Natural",
   "CategoryShort": "N",
   "Countries": "Argentina"
 },
 {
   "UID": 340,
   "ID": 303,
   "Name": "Iguazu National Park",
   "DateInscribed": 1984,
   "Longitude": -54.13333333,
   "Latitude": -25.51805556,
   "Hectares": 55000,
   "Category": "Natural",
   "CategoryShort": "N",
   "Countries": "Argentina"
 },
 {
   "UID": 1091,
   "ID": 936,
   "Name": "Cueva de las Manos, Río Pinturas",
   "DateInscribed": 1999,
   "Longitude": -70.66666667,
   "Latitude": -47.15,
   "Hectares": 600,
   "Category": "Cultural",
   "CategoryShort": "C",
   "Countries": "Argentina"
 },
 {
   "UID": 1092,
   "ID": 937,
   "Name": "Península Valdés",
   "DateInscribed": 1999,
   "Longitude": -64,
   "Latitude": -42.5,
   "Hectares": 360000,
   "Category": "Natural",
   "CategoryShort": "N",
   "Countries": "Argentina"
 },
 {
   "UID": 1130,
   "ID": 966,
   "Name": "Ischigualasto / Talampaya Natural Parks",
   "DateInscribed": 2000,
   "Longitude": -68,
   "Latitude": -30,
   "Hectares": 275369,
   "Category": "Natural",
   "CategoryShort": "N",
   "Countries": "Argentina"
 },
 {
   "UID": 1159,
   "ID": 995,
   "Name": "Jesuit Block and Estancias of Córdoba",
   "DateInscribed": 2000,
   "Longitude": -64.19111,
   "Latitude": -31.42056,
   "Hectares": 38.12,
   "Category": "Cultural",
   "CategoryShort": "C",
   "Countries": "Argentina"
 },
 {
   "UID": 1295,
   "ID": 1116,
   "Name": "Quebrada de Humahuaca",
   "DateInscribed": 2003,
   "Longitude": -65.34886111,
   "Latitude": -23.19986111,
   "Hectares": 172116.4375,
   "Category": "Cultural",
   "CategoryShort": "C",
   "Countries": "Argentina"
 },
 {
   "UID": 2172,
   "ID": 1526,
   "Name": "Los Alerces National Park",
   "DateInscribed": 2017,
   "Longitude": -71.8728,
   "Latitude": -42.8528,
   "Hectares": 188379,
   "Category": "Natural",
   "CategoryShort": "N",
   "Countries": "Argentina"
 },
 {
   "UID": 920,
   "ID": 777,
   "Name": "Monasteries of Haghpat and Sanahin",
   "DateInscribed": 1996,
   "Longitude": 44.71028,
   "Latitude": 41.095,
   "Hectares": 2.65,
   "Category": "Cultural",
   "CategoryShort": "C",
   "Countries": "Armenia"
 },
 {
   "UID": 1124,
   "ID": 960,
   "Name": "Monastery of Geghard and the Upper Azat Valley",
   "DateInscribed": 2000,
   "Longitude": 44.79667,
   "Latitude": 40.15889,
   "Hectares": 2.7,
   "Category": "Cultural",
   "CategoryShort": "C",
   "Countries": "Armenia"
 },
 {
   "UID": 1181,
   "ID": 1011,
   "Name": "Cathedral and Churches of Echmiatsin and the Archaeological Site of Zvartnots",
   "DateInscribed": 2000,
   "Longitude": 44.29514,
   "Latitude": 40.15931,
   "Hectares": 74.3,
   "Category": "Cultural",
   "CategoryShort": "C",
   "Countries": "Armenia"
 },
 {
   "UID": 1872,
   "ID": 147,
   "Name": "Kakadu National Park",
   "DateInscribed": 1981,
   "Longitude": 132.8333333,
   "Latitude": -12.83333333,
   "Hectares": 1980994.92,
   "Category": "Mixed",
   "CategoryShort": "C/N",
   "Countries": "Australia"
 },
 {
   "UID": 172,
   "ID": 154,
   "Name": "Great Barrier Reef",
   "DateInscribed": 1981,
   "Longitude": 147.7,
   "Latitude": -18.28611111,
   "Hectares": 34870000,
   "Category": "Natural",
   "CategoryShort": "N",
   "Countries": "Australia"
 },
 {
   "UID": 1457,
   "ID": 166,
   "Name": "Sydney Opera House",
   "DateInscribed": 2007,
   "Longitude": 151.2152778,
   "Latitude": -33.85666667,
   "Hectares": 5.8,
   "Category": "Cultural",
   "CategoryShort": "C",
   "Countries": "Australia"
 },
 {
   "UID": 185,
   "ID": 167,
   "Name": "Willandra Lakes Region",
   "DateInscribed": 1981,
   "Longitude": 143,
   "Latitude": -34,
   "Hectares": 240000,
   "Category": "Mixed",
   "CategoryShort": "C/N",
   "Countries": "Australia"
 },
 {
   "UID": 1950,
   "ID": 181,
   "Name": "Tasmanian Wilderness",
   "DateInscribed": 1982,
   "Longitude": 145.4166667,
   "Latitude": -41.58333333,
   "Hectares": 1584233,
   "Category": "Mixed",
   "CategoryShort": "C/N",
   "Countries": "Australia"
 },
 {
   "UID": 206,
   "ID": 186,
   "Name": "Lord Howe Island Group",
   "DateInscribed": 1982,
   "Longitude": 159.0883333,
   "Latitude": -31.56555556,
   "Hectares": 146300,
   "Category": "Natural",
   "CategoryShort": "N",
   "Countries": "Australia"
 },
 {
   "UID": 422,
   "ID": 368,
   "Name": "Gondwana Rainforests of Australia",
   "DateInscribed": 1986,
   "Longitude": 150.05,
   "Latitude": -28.25,
   "Hectares": 370000,
   "Category": "Natural",
   "CategoryShort": "N",
   "Countries": "Australia"
 },
 {
   "UID": 519,
   "ID": 447,
   "Name": "Uluru-Kata Tjuta National Park",
   "DateInscribed": 1987,
   "Longitude": 131,
   "Latitude": -25.33333333,
   "Hectares": 132566,
   "Category": "Mixed",
   "CategoryShort": "C/N",
   "Countries": "Australia"
 },
 {
   "UID": 565,
   "ID": 486,
   "Name": "Wet Tropics of Queensland",
   "DateInscribed": 1988,
   "Longitude": 144.9666667,
   "Latitude": -15.65,
   "Hectares": 893453,
   "Category": "Natural",
   "CategoryShort": "N",
   "Countries": "Australia"
 },
 {
   "UID": 683,
   "ID": 577,
   "Name": "Heard and McDonald Islands",
   "DateInscribed": 1997,
   "Longitude": 73.5,
   "Latitude": -53.1,
   "Hectares": 658903,
   "Category": "Natural",
   "CategoryShort": "N",
   "Countries": "Australia"
 },
 {
   "UID": 684,
   "ID": 578,
   "Name": "Shark Bay, Western Australia",
   "DateInscribed": 1991,
   "Longitude": 113.4361111,
   "Latitude": -25.48611111,
   "Hectares": 2200902,
   "Category": "Natural",
   "CategoryShort": "N",
   "Countries": "Australia"
 },
 {
   "UID": 747,
   "ID": 629,
   "Name": "Macquarie Island",
   "DateInscribed": 1997,
   "Longitude": 158.8955556,
   "Latitude": -54.59472222,
   "Hectares": 540000,
   "Category": "Natural",
   "CategoryShort": "N",
   "Countries": "Australia"
 },
 {
   "UID": 748,
   "ID": 630,
   "Name": "Fraser Island",
   "DateInscribed": 1992,
   "Longitude": 153.1333333,
   "Latitude": -25.21666667,
   "Hectares": 184000,
   "Category": "Natural",
   "CategoryShort": "N",
   "Countries": "Australia"
 },
 {
   "UID": 826,
   "ID": 698,
   "Name": "Australian Fossil Mammal Sites (Riversleigh / Naracoorte)",
   "DateInscribed": 1994,
   "Longitude": 138.7166667,
   "Latitude": -19.08333333,
   "Hectares": 10326,
   "Category": "Natural",
   "CategoryShort": "N",
   "Countries": "Australia"
 },
 {
   "UID": 1071,
   "ID": 917,
   "Name": "Greater Blue Mountains Area",
   "DateInscribed": 2000,
   "Longitude": 150,
   "Latitude": -33.7,
   "Hectares": 1032649,
   "Category": "Natural",
   "CategoryShort": "N",
   "Countries": "Australia"
 },
 {
   "UID": 1272,
   "ID": 1094,
   "Name": "Purnululu National Park",
   "DateInscribed": 2003,
   "Longitude": 128.5,
   "Latitude": -17.5,
   "Hectares": 239723,
   "Category": "Natural",
   "CategoryShort": "N",
   "Countries": "Australia"
 },
 {
   "UID": 1730,
   "ID": 1131,
   "Name": "Royal Exhibition Building and Carlton Gardens",
   "DateInscribed": 2004,
   "Longitude": 144.9702778,
   "Latitude": -37.80611111,
   "Hectares": 26,
   "Category": "Cultural",
   "CategoryShort": "C",
   "Countries": "Australia"
 },
 {
   "UID": 1648,
   "ID": 1306,
   "Name": "Australian Convict Sites",
   "DateInscribed": 2010,
   "Longitude": 150.9944444,
   "Latitude": -33.37833333,
   "Hectares": 1502.51,
   "Category": "Cultural",
   "CategoryShort": "C",
   "Countries": "Australia"
 },
 {
   "UID": 1763,
   "ID": 1369,
   "Name": "Ningaloo Coast",
   "DateInscribed": 2011,
   "Longitude": 113.8102778,
   "Latitude": -22.5625,
   "Hectares": 705015,
   "Category": "Natural",
   "CategoryShort": "N",
   "Countries": "Australia"
 },
 {
   "UID": 2262,
   "ID": 1577,
   "Name": "Budj Bim Cultural Landscape",
   "DateInscribed": 2019,
   "Longitude": 141.8852778,
   "Latitude": -38.08111111,
   "Hectares": 9935,
   "Category": "Cultural",
   "CategoryShort": "C",
   "Countries": "Australia"
 },
 {
   "UID": 927,
   "ID": 784,
   "Name": "Historic Centre of the City of Salzburg",
   "DateInscribed": 1996,
   "Longitude": 13.04333333,
   "Latitude": 47.80055556,
   "Hectares": 236,
   "Category": "Cultural",
   "CategoryShort": "C",
   "Countries": "Austria"
 },
 {
   "UID": 928,
   "ID": 785,
   "Name": "Semmering Railway",
   "DateInscribed": 1998,
   "Longitude": 15.82797222,
   "Latitude": 47.64877778,
   "Hectares": 156.18,
   "Category": "Cultural",
   "CategoryShort": "C",
   "Countries": "Austria"
 },
 {
   "UID": 929,
   "ID": 786,
   "Name": "Palace and Gardens of Schönbrunn",
   "DateInscribed": 1996,
   "Longitude": 16.31333333,
   "Latitude": 48.18666667,
   "Hectares": 186.28,
   "Category": "Cultural",
   "CategoryShort": "C",
   "Countries": "Austria"
 },
 {
   "UID": 952,
   "ID": 806,
   "Name": "Hallstatt-Dachstein / Salzkammergut Cultural Landscape",
   "DateInscribed": 1997,
   "Longitude": 13.64638889,
   "Latitude": 47.55944444,
   "Hectares": 28446.2,
   "Category": "Cultural",
   "CategoryShort": "C",
   "Countries": "Austria"
 },
 {
   "UID": 1724,
   "ID": 931,
   "Name": "City of Graz - Historic Centre and Schloss Eggenberg",
   "DateInscribed": 1999,
   "Longitude": 15.39166667,
   "Latitude": 47.07416667,
   "Hectares": null,
   "Category": "Cultural",
   "CategoryShort": "C",
   "Countries": "Austria"
 },
 {
   "UID": 1134,
   "ID": 970,
   "Name": "Wachau Cultural Landscape",
   "DateInscribed": 2000,
   "Longitude": 15.43416667,
   "Latitude": 48.36444444,
   "Hectares": 18387,
   "Category": "Cultural",
   "CategoryShort": "C",
   "Countries": "Austria"
 },
 {
   "UID": 1206,
   "ID": 1033,
   "Name": "Historic Centre of Vienna",
   "DateInscribed": 2001,
   "Longitude": 16.38333333,
   "Latitude": 48.21666667,
   "Hectares": 371,
   "Category": "Cultural",
   "CategoryShort": "C",
   "Countries": "Austria"
 },
 {
   "UID": 1121,
   "ID": 958,
   "Name": "Walled City of Baku with the Shirvanshah's Palace and Maiden Tower",
   "DateInscribed": 2000,
   "Longitude": 49.83333333,
   "Latitude": 40.36666667,
   "Hectares": 21.5,
   "Category": "Cultural",
   "CategoryShort": "C",
   "Countries": "Azerbaijan"
 },
 {
   "UID": 1474,
   "ID": 1076,
   "Name": "Gobustan Rock Art Cultural Landscape",
   "DateInscribed": 2007,
   "Longitude": 49.375,
   "Latitude": 40.125,
   "Hectares": 537.22,
   "Category": "Cultural",
   "CategoryShort": "C",
   "Countries": "Azerbaijan"
 },
 {
   "UID": 2333,
   "ID": 1549,
   "Name": "Historic Centre of Sheki with the Khan's Palace",
   "DateInscribed": 2019,
   "Longitude": 47.1875,
   "Latitude": 41.20333333,
   "Hectares": 120.5,
   "Category": "Cultural",
   "CategoryShort": "C",
   "Countries": "Azerbaijan"
 },
 {
   "UID": 2062,
   "ID": 1192,
   "Name": "Qal'at al-Bahrain - Ancient Harbour and Capital of Dilmun",
   "DateInscribed": 2005,
   "Longitude": 50.52722222,
   "Latitude": 26.23306,
   "Hectares": 70.4,
   "Category": "Cultural",
   "CategoryShort": "C",
   "Countries": "Bahrain"
 },
 {
   "UID": 1859,
   "ID": 1364,
   "Name": "Pearling, Testimony of an Island Economy",
   "DateInscribed": 2012,
   "Longitude": 50.61351,
   "Latitude": 26.24128,
   "Hectares": 35086.81,
   "Category": "Cultural",
   "CategoryShort": "C",
   "Countries": "Bahrain"
 },
 {
   "UID": 2291,
   "ID": 1542,
   "Name": "Dilmun Burial Mounds",
   "DateInscribed": 2019,
   "Longitude": 50.51277778,
   "Latitude": 26.14972222,
   "Hectares": 168.45,
   "Category": "Cultural",
   "CategoryShort": "C",
   "Countries": "Bahrain"
 },
 {
   "UID": 365,
   "ID": 321,
   "Name": "Historic Mosque City of Bagerhat",
   "DateInscribed": 1985,
   "Longitude": 89.8,
   "Latitude": 22.66667,
   "Hectares": 0,
   "Category": "Cultural",
   "CategoryShort": "C",
   "Countries": "Bangladesh"
 },
 {
   "UID": 366,
   "ID": 322,
   "Name": "Ruins of the Buddhist Vihara at Paharpur",
   "DateInscribed": 1985,
   "Longitude": 88.98333333,
   "Latitude": 25.03333333,
   "Hectares": 0,
   "Category": "Cultural",
   "CategoryShort": "C",
   "Countries": "Bangladesh"
 },
 {
   "UID": 943,
   "ID": 798,
   "Name": "The Sundarbans",
   "DateInscribed": 1997,
   "Longitude": 89.18333,
   "Latitude": 21.95,
   "Hectares": 139500,
   "Category": "Natural",
   "CategoryShort": "N",
   "Countries": "Bangladesh"
 },
 {
   "UID": 1786,
   "ID": 1376,
   "Name": "Historic Bridgetown and its Garrison",
   "DateInscribed": 2011,
   "Longitude": -59.61388889,
   "Latitude": 13.09666667,
   "Hectares": 187,
   "Category": "Cultural",
   "CategoryShort": "C",
   "Countries": "Barbados"
 },
 {
   "UID": 743,
   "ID": 625,
   "Name": "Mir Castle Complex",
   "DateInscribed": 2000,
   "Longitude": 26.47272222,
   "Latitude": 53.45108333,
   "Hectares": 27,
   "Category": "Cultural",
   "CategoryShort": "C",
   "Countries": "Belarus"
 },
 {
   "UID": 1373,
   "ID": 1196,
   "Name": "Architectural, Residential and Cultural Complex of the Radziwill Family at Nesvizh",
   "DateInscribed": 2005,
   "Longitude": 26.69139,
   "Latitude": 53.22278,
   "Hectares": 0,
   "Category": "Cultural",
   "CategoryShort": "C",
   "Countries": "Belarus"
 },
 {
   "UID": 1006,
   "ID": 855,
   "Name": "Flemish Béguinages",
   "DateInscribed": 1998,
   "Longitude": 4.47375,
   "Latitude": 51.03097222,
   "Hectares": 59.95,
   "Category": "Cultural",
   "CategoryShort": "C",
   "Countries": "Belgium"
 },
 {
   "UID": 1007,
   "ID": 856,
   "Name": "The Four Lifts on the Canal du Centre and their Environs, La Louvière and Le Roeulx (Hainaut)",
   "DateInscribed": 1998,
   "Longitude": 4.13722,
   "Latitude": 50.48111,
   "Hectares": 67.3436,
   "Category": "Cultural",
   "CategoryShort": "C",
   "Countries": "Belgium"
 },
 {
   "UID": 1008,
   "ID": 857,
   "Name": "La Grand-Place, Brussels",
   "DateInscribed": 1998,
   "Longitude": 4.35242,
   "Latitude": 50.84668,
   "Hectares": 1.48,
   "Category": "Cultural",
   "CategoryShort": "C",
   "Countries": "Belgium"
 },
 {
   "UID": 1160,
   "ID": 996,
   "Name": "Historic Centre of Brugge",
   "DateInscribed": 2000,
   "Longitude": 3.22527,
   "Latitude": 51.20891,
   "Hectares": 410,
   "Category": "Cultural",
   "CategoryShort": "C",
   "Countries": "Belgium"
 },
 {
   "UID": 1173,
   "ID": 1005,
   "Name": "Major Town Houses of the Architect Victor Horta (Brussels)",
   "DateInscribed": 2000,
   "Longitude": 4.36223,
   "Latitude": 50.82806,
   "Hectares": 0,
   "Category": "Cultural",
   "CategoryShort": "C",
   "Countries": "Belgium"
 },
 {
   "UID": 1174,
   "ID": 1006,
   "Name": "Neolithic Flint Mines at Spiennes (Mons)",
   "DateInscribed": 2000,
   "Longitude": 3.97879,
   "Latitude": 50.43077,
   "Hectares": 172,
   "Category": "Cultural",
   "CategoryShort": "C",
   "Countries": "Belgium"
 },
 {
   "UID": 1179,
   "ID": 1009,
   "Name": "Notre-Dame Cathedral in Tournai",
   "DateInscribed": 2000,
   "Longitude": 3.38926,
   "Latitude": 50.60603,
   "Hectares": 0.4963,
   "Category": "Cultural",
   "CategoryShort": "C",
   "Countries": "Belgium"
 },
 {
   "UID": 1362,
   "ID": 1185,
   "Name": "Plantin-Moretus House-Workshops-Museum Complex",
   "DateInscribed": 2005,
   "Longitude": 4.39778,
   "Latitude": 51.21833,
   "Hectares": 0.23,
   "Category": "Cultural",
   "CategoryShort": "C",
   "Countries": "Belgium"
 },
 {
   "UID": 1578,
   "ID": 1298,
   "Name": "Stoclet House",
   "DateInscribed": 2009,
   "Longitude": 4.416111111,
   "Latitude": 50.835,
   "Hectares": 0.86,
   "Category": "Cultural",
   "CategoryShort": "C",
   "Countries": "Belgium"
 },
 {
   "UID": 1837,
   "ID": 1344,
   "Name": "Major Mining Sites of Wallonia",
   "DateInscribed": 2012,
   "Longitude": 3.838333333,
   "Latitude": 50.43527778,
   "Hectares": 118.07,
   "Category": "Cultural",
   "CategoryShort": "C",
   "Countries": "Belgium"
 },
 {
   "UID": 900,
   "ID": 764,
   "Name": "Belize Barrier Reef Reserve System",
   "DateInscribed": 1996,
   "Longitude": -87.05833333,
   "Latitude": 16.75,
   "Hectares": 96300,
   "Category": "Natural",
   "CategoryShort": "N",
   "Countries": "Belize"
 },
 {
   "UID": 1560,
   "ID": 323,
   "Name": "Royal Palaces of Abomey",
   "DateInscribed": 1985,
   "Longitude": 1.983333333,
   "Latitude": 7.183333333,
   "Hectares": 47.6,
   "Category": "Cultural",
   "CategoryShort": "C",
   "Countries": "Benin"
 },
 {
   "UID": 484,
   "ID": 420,
   "Name": "City of Potosí",
   "DateInscribed": 1987,
   "Longitude": -65.75306,
   "Latitude": -19.58361,
   "Hectares": 0,
   "Category": "Cultural",
   "CategoryShort": "C",
   "Countries": "Bolivia"
 },
 {
   "UID": 619,
   "ID": 529,
   "Name": "Jesuit Missions of the Chiquitos",
   "DateInscribed": 1990,
   "Longitude": -60.5,
   "Latitude": -16,
   "Hectares": 0,
   "Category": "Cultural",
   "CategoryShort": "C",
   "Countries": "Bolivia"
 },
 {
   "UID": 668,
   "ID": 566,
   "Name": "Historic City of Sucre",
   "DateInscribed": 1991,
   "Longitude": -65.25917,
   "Latitude": -19.04306,
   "Hectares": 0,
   "Category": "Cultural",
   "CategoryShort": "C",
   "Countries": "Bolivia"
 },
 {
   "UID": 670,
   "ID": 567,
   "Name": "Tiwanaku: Spiritual and Political Centre of the Tiwanaku Culture",
   "DateInscribed": 2000,
   "Longitude": -68.67778,
   "Latitude": -16.55833333,
   "Hectares": 0,
   "Category": "Cultural",
   "CategoryShort": "C",
   "Countries": "Bolivia"
 },
 {
   "UID": 1035,
   "ID": 883,
   "Name": "Fuerte de Samaipata",
   "DateInscribed": 1998,
   "Longitude": -63.81666667,
   "Latitude": -18.16666667,
   "Hectares": 0,
   "Category": "Cultural",
   "CategoryShort": "C",
   "Countries": "Bolivia"
 },
 {
   "UID": 1131,
   "ID": 967,
   "Name": "Noel Kempff Mercado National Park",
   "DateInscribed": 2000,
   "Longitude": -60.86667,
   "Latitude": -14.26667,
   "Hectares": 1523446,
   "Category": "Natural",
   "CategoryShort": "N",
   "Countries": "Bolivia"
 },
 {
   "UID": 1107,
   "ID": 946,
   "Name": "Old Bridge Area of the Old City of Mostar",
   "DateInscribed": 2005,
   "Longitude": 17.81092,
   "Latitude": 43.34812,
   "Hectares": 7.6,
   "Category": "Cultural",
   "CategoryShort": "C",
   "Countries": "Bosnia and Herzegovina"
 },
 {
   "UID": 1437,
   "ID": 1260,
   "Name": "Mehmed Paša Sokolović Bridge in Višegrad",
   "DateInscribed": 2007,
   "Longitude": 19.288025,
   "Latitude": 43.78144444,
   "Hectares": 1.5,
   "Category": "Cultural",
   "CategoryShort": "C",
   "Countries": "Bosnia and Herzegovina"
 },
 {
   "UID": 1191,
   "ID": 1021,
   "Name": "Tsodilo",
   "DateInscribed": 2001,
   "Longitude": 21.73333333,
   "Latitude": -18.75,
   "Hectares": 4800,
   "Category": "Cultural",
   "CategoryShort": "C",
   "Countries": "Botswana"
 },
 {
   "UID": 1976,
   "ID": 1432,
   "Name": "Okavango Delta",
   "DateInscribed": 2014,
   "Longitude": 22.9,
   "Latitude": -19.28333333,
   "Hectares": 2023590,
   "Category": "Natural",
   "CategoryShort": "N",
   "Countries": "Botswana"
 },
 {
   "UID": 136,
   "ID": 124,
   "Name": "Historic Town of Ouro Preto",
   "DateInscribed": 1980,
   "Longitude": -43.50555556,
   "Latitude": -20.38888889,
   "Hectares": 0,
   "Category": "Cultural",
   "CategoryShort": "C",
   "Countries": "Brazil"
 },
 {
   "UID": 210,
   "ID": 189,
   "Name": "Historic Centre of the Town of Olinda",
   "DateInscribed": 1982,
   "Longitude": -34.845,
   "Latitude": -8.013333333,
   "Hectares": 120,
   "Category": "Cultural",
   "CategoryShort": "C",
   "Countries": "Brazil"
 },
 {
   "UID": 348,
   "ID": 309,
   "Name": "Historic Centre of Salvador de Bahia",
   "DateInscribed": 1985,
   "Longitude": -38.5,
   "Latitude": -12.96666667,
   "Hectares": 0,
   "Category": "Cultural",
   "CategoryShort": "C",
   "Countries": "Brazil"
 },
 {
   "UID": 380,
   "ID": 334,
   "Name": "Sanctuary of Bom Jesus do Congonhas",
   "DateInscribed": 1985,
   "Longitude": -43.85777778,
   "Latitude": -20.49972222,
   "Hectares": 2.19,
   "Category": "Cultural",
   "CategoryShort": "C",
   "Countries": "Brazil"
 },
 {
   "UID": 408,
   "ID": 355,
   "Name": "Iguaçu National Park",
   "DateInscribed": 1986,
   "Longitude": -54.43333,
   "Latitude": -25.68333,
   "Hectares": 169695.88,
   "Category": "Natural",
   "CategoryShort": "N",
   "Countries": "Brazil"
 },
 {
   "UID": 516,
   "ID": 445,
   "Name": "Brasilia",
   "DateInscribed": 1987,
   "Longitude": -47.9,
   "Latitude": -15.78333,
   "Hectares": 11268.92,
   "Category": "Cultural",
   "CategoryShort": "C",
   "Countries": "Brazil"
 },
 {
   "UID": 719,
   "ID": 606,
   "Name": "Serra da Capivara National Park",
   "DateInscribed": 1991,
   "Longitude": -42.33333333,
   "Latitude": -8.416666667,
   "Hectares": 0,
   "Category": "Cultural",
   "CategoryShort": "C",
   "Countries": "Brazil"
 },
 {
   "UID": 970,
   "ID": 821,
   "Name": "Historic Centre of São Luís",
   "DateInscribed": 1997,
   "Longitude": -44.3025,
   "Latitude": -2.514166667,
   "Hectares": 66.65,
   "Category": "Cultural",
   "CategoryShort": "C",
   "Countries": "Brazil"
 },
 {
   "UID": 1042,
   "ID": 890,
   "Name": "Historic Centre of the Town of Diamantina",
   "DateInscribed": 1999,
   "Longitude": -43.6,
   "Latitude": -18.23333333,
   "Hectares": 28.5,
   "Category": "Cultural",
   "CategoryShort": "C",
   "Countries": "Brazil"
 },
 {
   "UID": 1044,
   "ID": 892,
   "Name": "Discovery Coast Atlantic Forest Reserves",
   "DateInscribed": 1999,
   "Longitude": -39.25,
   "Latitude": -16.5,
   "Hectares": 111930,
   "Category": "Natural",
   "CategoryShort": "N",
   "Countries": "Brazil"
 },
 {
   "UID": 1045,
   "ID": 893,
   "Name": "Atlantic Forest South-East Reserves",
   "DateInscribed": 1999,
   "Longitude": -48,
   "Latitude": -24.16667,
   "Hectares": 468193,
   "Category": "Natural",
   "CategoryShort": "N",
   "Countries": "Brazil"
 },
 {
   "UID": 1157,
   "ID": 993,
   "Name": "Historic Centre of the Town of Goiás",
   "DateInscribed": 2001,
   "Longitude": -50.13336,
   "Latitude": -15.93328,
   "Hectares": 40.3,
   "Category": "Cultural",
   "CategoryShort": "C",
   "Countries": "Brazil"
 },
 {
   "UID": 1163,
   "ID": 998,
   "Name": "Central Amazon Conservation Complex",
   "DateInscribed": 2000,
   "Longitude": -62.00833333,
   "Latitude": -2.333333333,
   "Hectares": 5323018,
   "Category": "Natural",
   "CategoryShort": "N",
   "Countries": "Brazil"
 },
 {
   "UID": 1164,
   "ID": 999,
   "Name": "Pantanal Conservation Area",
   "DateInscribed": 2000,
   "Longitude": -57.38333,
   "Latitude": -17.71667,
   "Hectares": 187818,
   "Category": "Natural",
   "CategoryShort": "N",
   "Countries": "Brazil"
 },
 {
   "UID": 1166,
   "ID": 1000,
   "Name": "Brazilian Atlantic Islands: Fernando de Noronha and Atol das Rocas Reserves",
   "DateInscribed": 2001,
   "Longitude": -32.42511111,
   "Latitude": -3.857944444,
   "Hectares": 42270,
   "Category": "Natural",
   "CategoryShort": "N",
   "Countries": "Brazil"
 },
 {
   "UID": 1208,
   "ID": 1035,
   "Name": "Cerrado Protected Areas: Chapada dos Veadeiros and Emas National Parks",
   "DateInscribed": 2001,
   "Longitude": -47.68461111,
   "Latitude": -14.00569444,
   "Hectares": 367356,
   "Category": "Natural",
   "CategoryShort": "N",
   "Countries": "Brazil"
 },
 {
   "UID": 1843,
   "ID": 1100,
   "Name": "Rio de Janeiro: Carioca Landscapes between the Mountain and the Sea",
   "DateInscribed": 2012,
   "Longitude": -43.29138889,
   "Latitude": -22.94777778,
   "Hectares": 7248.78,
   "Category": "Cultural",
   "CategoryShort": "C",
   "Countries": "Brazil"
 },
 {
   "UID": 1725,
   "ID": 1272,
   "Name": "São Francisco Square in the Town of São Cristóvão",
   "DateInscribed": 2010,
   "Longitude": -37.21,
   "Latitude": -11.01611111,
   "Hectares": 3,
   "Category": "Cultural",
   "CategoryShort": "C",
   "Countries": "Brazil"
 },
 {
   "UID": 2264,
   "ID": 1308,
   "Name": "Paraty and Ilha Grande - Culture and Biodiversity",
   "DateInscribed": 2019,
   "Longitude": -44.68536944,
   "Latitude": -23.01860556,
   "Hectares": 204634,
   "Category": "Mixed",
   "CategoryShort": "C/N",
   "Countries": "Brazil"
 },
 {
   "UID": 2077,
   "ID": 1493,
   "Name": "Pampulha Modern Ensemble",
   "DateInscribed": 2016,
   "Longitude": -43.97361111,
   "Latitude": -19.85194444,
   "Hectares": 154,
   "Category": "Cultural",
   "CategoryShort": "C",
   "Countries": "Brazil"
 },
 {
   "UID": 2173,
   "ID": 1548,
   "Name": "Valongo Wharf Archaeological Site",
   "DateInscribed": 2017,
   "Longitude": -43.18739444,
   "Latitude": -22.89711111,
   "Hectares": 0.3895,
   "Category": "Cultural",
   "CategoryShort": "C",
   "Countries": "Brazil"
 },
 {
   "UID": 46,
   "ID": 42,
   "Name": "Boyana Church",
   "DateInscribed": 1979,
   "Longitude": 23.26666667,
   "Latitude": 42.65,
   "Hectares": 0.68,
   "Category": "Cultural",
   "CategoryShort": "C",
   "Countries": "Bulgaria"
 },
 {
   "UID": 47,
   "ID": 43,
   "Name": "Madara Rider",
   "DateInscribed": 1979,
   "Longitude": 27.15,
   "Latitude": 43.3,
   "Hectares": 1.2,
   "Category": "Cultural",
   "CategoryShort": "C",
   "Countries": "Bulgaria"
 },
 {
   "UID": 48,
   "ID": 44,
   "Name": "Thracian Tomb of Kazanlak",
   "DateInscribed": 1979,
   "Longitude": 25.4,
   "Latitude": 42.61666667,
   "Hectares": 0.0155,
   "Category": "Cultural",
   "CategoryShort": "C",
   "Countries": "Bulgaria"
 },
 {
   "UID": 49,
   "ID": 45,
   "Name": "Rock-Hewn Churches of Ivanovo",
   "DateInscribed": 1979,
   "Longitude": 25.96666667,
   "Latitude": 43.71666667,
   "Hectares": 171.9,
   "Category": "Cultural",
   "CategoryShort": "C",
   "Countries": "Bulgaria"
 },
 {
   "UID": 239,
   "ID": 216,
   "Name": "Rila Monastery",
   "DateInscribed": 1983,
   "Longitude": 23.4,
   "Latitude": 42.11666667,
   "Hectares": 10.7,
   "Category": "Cultural",
   "CategoryShort": "C",
   "Countries": "Bulgaria"
 },
 {
   "UID": 240,
   "ID": 217,
   "Name": "Ancient City of Nessebar",
   "DateInscribed": 1983,
   "Longitude": 27.73,
   "Latitude": 42.65611,
   "Hectares": 27.1,
   "Category": "Cultural",
   "CategoryShort": "C",
   "Countries": "Bulgaria"
 },
 {
   "UID": 1621,
   "ID": 219,
   "Name": "Srebarna Nature Reserve",
   "DateInscribed": 1983,
   "Longitude": 27.07806,
   "Latitude": 44.11444,
   "Hectares": 638,
   "Category": "Natural",
   "CategoryShort": "N",
   "Countries": "Bulgaria"
 },
 {
   "UID": 1641,
   "ID": 225,
   "Name": "Pirin National Park",
   "DateInscribed": 1983,
   "Longitude": 23.43047222,
   "Latitude": 41.74272222,
   "Hectares": 38350.04,
   "Category": "Natural",
   "CategoryShort": "N",
   "Countries": "Bulgaria"
 },
 {
   "UID": 412,
   "ID": 359,
   "Name": "Thracian Tomb of Sveshtari",
   "DateInscribed": 1985,
   "Longitude": 26.66667,
   "Latitude": 43.66667,
   "Hectares": 647.6,
   "Category": "Cultural",
   "CategoryShort": "C",
   "Countries": "Bulgaria"
 },
 {
   "UID": 1696,
   "ID": 1225,
   "Name": "Ruins of Loropéni",
   "DateInscribed": 2009,
   "Longitude": -3.583333333,
   "Latitude": 10.25,
   "Hectares": 1.113,
   "Category": "Cultural",
   "CategoryShort": "C",
   "Countries": "Burkina Faso"
 },
 {
   "UID": 2290,
   "ID": 1602,
   "Name": "Ancient ferrous metallurgy sites of Burkina Faso",
   "DateInscribed": 2019,
   "Longitude": -3.328986111,
   "Latitude": 12.58775833,
   "Hectares": 122.3,
   "Category": "Cultural",
   "CategoryShort": "C",
   "Countries": "Burkina Faso"
 },
 {
   "UID": 1600,
   "ID": 1310,
   "Name": "Cidade Velha, Historic Centre of Ribeira Grande",
   "DateInscribed": 2009,
   "Longitude": -23.60519444,
   "Latitude": 14.91513889,
   "Hectares": 209.1,
   "Category": "Cultural",
   "CategoryShort": "C",
   "Countries": "Cabo Verde"
 },
 {
   "UID": 791,
   "ID": 668,
   "Name": "Angkor",
   "DateInscribed": 1992,
   "Longitude": 103.8333333,
   "Latitude": 13.43333333,
   "Hectares": 40100,
   "Category": "Cultural",
   "CategoryShort": "C",
   "Countries": "Cambodia"
 },
 {
   "UID": 1591,
   "ID": 1224,
   "Name": "Temple of Preah Vihear",
   "DateInscribed": 2008,
   "Longitude": 104.6838889,
   "Latitude": 14.38833333,
   "Hectares": 154.7,
   "Category": "Cultural",
   "CategoryShort": "C",
   "Countries": "Cambodia"
 },
 {
   "UID": 2140,
   "ID": 1532,
   "Name": "Temple Zone of Sambor Prei Kuk, Archaeological Site of Ancient Ishanapura",
   "DateInscribed": 2017,
   "Longitude": 105.0430556,
   "Latitude": 12.8725,
   "Hectares": 840.03,
   "Category": "Cultural",
   "CategoryShort": "C",
   "Countries": "Cambodia"
 },
 {
   "UID": 470,
   "ID": 407,
   "Name": "Dja Faunal Reserve",
   "DateInscribed": 1987,
   "Longitude": 13,
   "Latitude": 3,
   "Hectares": 526000,
   "Category": "Natural",
   "CategoryShort": "N",
   "Countries": "Cameroon"
 },
 {
   "UID": 2248,
   "ID": 4,
   "Name": "L'Anse aux Meadows National Historic Site",
   "DateInscribed": 1978,
   "Longitude": -55.61666667,
   "Latitude": 51.46666667,
   "Hectares": 7991,
   "Category": "Cultural",
   "CategoryShort": "C",
   "Countries": "Canada"
 },
 {
   "UID": 27,
   "ID": 24,
   "Name": "Nahanni National Park",
   "DateInscribed": 1978,
   "Longitude": -125.5894444,
   "Latitude": 61.54722222,
   "Hectares": 476560,
   "Category": "Natural",
   "CategoryShort": "N",
   "Countries": "Canada"
 },
 {
   "UID": 75,
   "ID": 71,
   "Name": "Dinosaur Provincial Park",
   "DateInscribed": 1979,
   "Longitude": -111.4922222,
   "Latitude": 50.76777778,
   "Hectares": 7825,
   "Category": "Natural",
   "CategoryShort": "N",
   "Countries": "Canada"
 },
 {
   "UID": 175,
   "ID": 157,
   "Name": "SGang Gwaay",
   "DateInscribed": 1981,
   "Longitude": -131.2202778,
   "Latitude": 52.095,
   "Hectares": 0,
   "Category": "Cultural",
   "CategoryShort": "C",
   "Countries": "Canada"
 },
 {
   "UID": 176,
   "ID": 158,
   "Name": "Head-Smashed-In Buffalo Jump",
   "DateInscribed": 1981,
   "Longitude": -113.6238889,
   "Latitude": 49.74944444,
   "Hectares": 4000,
   "Category": "Cultural",
   "CategoryShort": "C",
   "Countries": "Canada"
 },
 {
   "UID": 286,
   "ID": 256,
   "Name": "Wood Buffalo National Park",
   "DateInscribed": 1983,
   "Longitude": -112.2933333,
   "Latitude": 59.35833333,
   "Hectares": 4480000,
   "Category": "Natural",
   "CategoryShort": "N",
   "Countries": "Canada"
 },
 {
   "UID": 336,
   "ID": 300,
   "Name": "Historic District of Old Québec",
   "DateInscribed": 1985,
   "Longitude": -71.21055556,
   "Latitude": 46.80944444,
   "Hectares": 135,
   "Category": "Cultural",
   "CategoryShort": "C",
   "Countries": "Canada"
 },
 {
   "UID": 342,
   "ID": 304,
   "Name": "Canadian Rocky Mountain Parks",
   "DateInscribed": 1984,
   "Longitude": -116.4797222,
   "Latitude": 51.42472222,
   "Hectares": 2299104,
   "Category": "Natural",
   "CategoryShort": "N",
   "Countries": "Canada"
 },
 {
   "UID": 483,
   "ID": 419,
   "Name": "Gros Morne National Park",
   "DateInscribed": 1987,
   "Longitude": -57.53138889,
   "Latitude": 49.6125,
   "Hectares": 180500,
   "Category": "Natural",
   "CategoryShort": "N",
   "Countries": "Canada"
 },
 {
   "UID": 812,
   "ID": 686,
   "Name": "Miguasha National Park",
   "DateInscribed": 1999,
   "Longitude": -66.35305556,
   "Latitude": 48.105,
   "Hectares": 87.3,
   "Category": "Natural",
   "CategoryShort": "N",
   "Countries": "Canada"
 },
 {
   "UID": 875,
   "ID": 741,
   "Name": "Old Town Lunenburg",
   "DateInscribed": 1995,
   "Longitude": -64.30916667,
   "Latitude": 44.37611111,
   "Hectares": 33.85,
   "Category": "Cultural",
   "CategoryShort": "C",
   "Countries": "Canada"
 },
 {
   "UID": 1475,
   "ID": 1221,
   "Name": "Rideau Canal",
   "DateInscribed": 2007,
   "Longitude": -75.765125,
   "Latitude": 44.99438611,
   "Hectares": 21454.81,
   "Category": "Cultural",
   "CategoryShort": "C",
   "Countries": "Canada"
 },
 {
   "UID": 1516,
   "ID": 1285,
   "Name": "Joggins Fossil Cliffs",
   "DateInscribed": 2008,
   "Longitude": -64.43583333,
   "Latitude": 45.70972222,
   "Hectares": 689,
   "Category": "Natural",
   "CategoryShort": "N",
   "Countries": "Canada"
 },
 {
   "UID": 1828,
   "ID": 1404,
   "Name": "Landscape of Grand Pré",
   "DateInscribed": 2012,
   "Longitude": -64.30722222,
   "Latitude": 45.11833333,
   "Hectares": 1323.24,
   "Category": "Cultural",
   "CategoryShort": "C",
   "Countries": "Canada"
 },
 {
   "UID": 1874,
   "ID": 1412,
   "Name": "Red Bay Basque Whaling Station",
   "DateInscribed": 2013,
   "Longitude": -56.42952222,
   "Latitude": 51.726925,
   "Hectares": 312.973,
   "Category": "Cultural",
   "CategoryShort": "C",
   "Countries": "Canada"
 },
 {
   "UID": 2214,
   "ID": 1415,
   "Name": "Pimachiowin Aki",
   "DateInscribed": 2018,
   "Longitude": -95.41127778,
   "Latitude": 51.82641667,
   "Hectares": 2904000,
   "Category": "Mixed",
   "CategoryShort": "C/N",
   "Countries": "Canada"
 },
 {
   "UID": 2083,
   "ID": 1497,
   "Name": "Mistaken Point",
   "DateInscribed": 2016,
   "Longitude": -53.21111111,
   "Latitude": 46.635,
   "Hectares": 146,
   "Category": "Natural",
   "CategoryShort": "N",
   "Countries": "Canada"
 },
 {
   "UID": 2295,
   "ID": 1597,
   "Name": "Writing-on-Stone / Áísínai’pi",
   "DateInscribed": 2019,
   "Longitude": -111.6333333,
   "Latitude": 49.075,
   "Hectares": 1106,
   "Category": "Cultural",
   "CategoryShort": "C",
   "Countries": "Canada"
 },
 {
   "UID": 553,
   "ID": 475,
   "Name": "Manovo-Gounda St Floris National Park",
   "DateInscribed": 1988,
   "Longitude": 21.5,
   "Latitude": 9,
   "Hectares": 1740000,
   "Category": "Natural",
   "CategoryShort": "N",
   "Countries": "Central African Republic"
 },
 {
   "UID": 1824,
   "ID": 1400,
   "Name": "Lakes of Ounianga",
   "DateInscribed": 2012,
   "Longitude": 20.50555556,
   "Latitude": 19.055,
   "Hectares": 62808,
   "Category": "Natural",
   "CategoryShort": "N",
   "Countries": "Chad"
 },
 {
   "UID": 2091,
   "ID": 1475,
   "Name": "Ennedi Massif: Natural and Cultural Landscape",
   "DateInscribed": 2016,
   "Longitude": 21.86277778,
   "Latitude": 17.04166667,
   "Hectares": 2441200,
   "Category": "Mixed",
   "CategoryShort": "C/N",
   "Countries": "Chad"
 },
 {
   "UID": 846,
   "ID": 715,
   "Name": "Rapa Nui National Park",
   "DateInscribed": 1995,
   "Longitude": -109.45,
   "Latitude": -27.15,
   "Hectares": 6666,
   "Category": "Cultural",
   "CategoryShort": "C",
   "Countries": "Chile"
 },
 {
   "UID": 1123,
   "ID": 959,
   "Name": "Historic Quarter of the Seaport City of Valparaíso",
   "DateInscribed": 2003,
   "Longitude": -71.628,
   "Latitude": -33.04063889,
   "Hectares": 23.2,
   "Category": "Cultural",
   "CategoryShort": "C",
   "Countries": "Chile"
 },
 {
   "UID": 1135,
   "ID": 971,
   "Name": "Churches of Chiloé",
   "DateInscribed": 2000,
   "Longitude": -73.76666667,
   "Latitude": -42.5,
   "Hectares": 0,
   "Category": "Cultural",
   "CategoryShort": "C",
   "Countries": "Chile"
 },
 {
   "UID": 1869,
   "ID": 1178,
   "Name": "Humberstone and Santa Laura Saltpeter Works",
   "DateInscribed": 2005,
   "Longitude": -69.79406,
   "Latitude": -20.20582,
   "Hectares": 573.48,
   "Category": "Cultural",
   "CategoryShort": "C",
   "Countries": "Chile"
 },
 {
   "UID": 1391,
   "ID": 1214,
   "Name": "Sewell Mining Town",
   "DateInscribed": 2006,
   "Longitude": -70.38277778,
   "Latitude": -34.08444444,
   "Hectares": 17.2,
   "Category": "Cultural",
   "CategoryShort": "C",
   "Countries": "Chile"
 },
 {
   "UID": 507,
   "ID": 437,
   "Name": "Mount Taishan",
   "DateInscribed": 1987,
   "Longitude": 117.1,
   "Latitude": 36.26667,
   "Hectares": 25000,
   "Category": "Mixed",
   "CategoryShort": "C/N",
   "Countries": "China"
 },
 {
   "UID": 508,
   "ID": 438,
   "Name": "The Great Wall",
   "DateInscribed": 1987,
   "Longitude": 116.08333,
   "Latitude": 40.41667,
   "Hectares": 2151.55,
   "Category": "Cultural",
   "CategoryShort": "C",
   "Countries": "China"
 },
 {
   "UID": 510,
   "ID": 439,
   "Name": "Imperial Palaces of the Ming and Qing Dynasties in Beijing and Shenyang",
   "DateInscribed": 1987,
   "Longitude": 123.4469444,
   "Latitude": 41.79416667,
   "Hectares": 12.96,
   "Category": "Cultural",
   "CategoryShort": "C",
   "Countries": "China"
 },
 {
   "UID": 511,
   "ID": 440,
   "Name": "Mogao Caves",
   "DateInscribed": 1987,
   "Longitude": 94.81667,
   "Latitude": 40.13333,
   "Hectares": 0,
   "Category": "Cultural",
   "CategoryShort": "C",
   "Countries": "China"
 },
 {
   "UID": 512,
   "ID": 441,
   "Name": "Mausoleum of the First Qin Emperor",
   "DateInscribed": 1987,
   "Longitude": 109.1,
   "Latitude": 34.38333333,
   "Hectares": 0,
   "Category": "Cultural",
   "CategoryShort": "C",
   "Countries": "China"
 },
 {
   "UID": 521,
   "ID": 449,
   "Name": "Peking Man Site at Zhoukoudian",
   "DateInscribed": 1987,
   "Longitude": 115.9166667,
   "Latitude": 39.73333333,
   "Hectares": 480,
   "Category": "Cultural",
   "CategoryShort": "C",
   "Countries": "China"
 },
 {
   "UID": 1933,
   "ID": 547,
   "Name": "Mount Huangshan",
   "DateInscribed": 1990,
   "Longitude": 118.18333,
   "Latitude": 30.16667,
   "Hectares": 16060,
   "Category": "Mixed",
   "CategoryShort": "C/N",
   "Countries": "China"
 },
 {
   "UID": 757,
   "ID": 637,
   "Name": "Jiuzhaigou Valley Scenic and Historic Interest Area",
   "DateInscribed": 1992,
   "Longitude": 103.91667,
   "Latitude": 33.08333,
   "Hectares": 72000,
   "Category": "Natural",
   "CategoryShort": "N",
   "Countries": "China"
 },
 {
   "UID": 758,
   "ID": 638,
   "Name": "Huanglong Scenic and Historic Interest Area",
   "DateInscribed": 1992,
   "Longitude": 103.82222,
   "Latitude": 32.75417,
   "Hectares": 60000,
   "Category": "Natural",
   "CategoryShort": "N",
   "Countries": "China"
 },
 {
   "UID": 760,
   "ID": 640,
   "Name": "Wulingyuan Scenic and Historic Interest Area",
   "DateInscribed": 1992,
   "Longitude": 110.5,
   "Latitude": 29.33333,
   "Hectares": 26400,
   "Category": "Natural",
   "CategoryShort": "N",
   "Countries": "China"
 },
 {
   "UID": 831,
   "ID": 703,
   "Name": "Mountain Resort and its Outlying Temples, Chengde",
   "DateInscribed": 1994,
   "Longitude": 117.93833,
   "Latitude": 40.98694,
   "Hectares": 0,
   "Category": "Cultural",
   "CategoryShort": "C",
   "Countries": "China"
 },
 {
   "UID": 832,
   "ID": 704,
   "Name": "Temple and Cemetery of Confucius and the Kong Family Mansion in Qufu",
   "DateInscribed": 1994,
   "Longitude": 116.975,
   "Latitude": 35.61167,
   "Hectares": 0,
   "Category": "Cultural",
   "CategoryShort": "C",
   "Countries": "China"
 },
 {
   "UID": 833,
   "ID": 705,
   "Name": "Ancient Building Complex in the Wudang Mountains",
   "DateInscribed": 1994,
   "Longitude": 111,
   "Latitude": 32.46667,
   "Hectares": 0,
   "Category": "Cultural",
   "CategoryShort": "C",
   "Countries": "China"
 },
 {
   "UID": 837,
   "ID": 707,
   "Name": "Historic Ensemble of the Potala Palace, Lhasa",
   "DateInscribed": 1994,
   "Longitude": 91.11717,
   "Latitude": 29.65792,
   "Hectares": 60.5,
   "Category": "Cultural",
   "CategoryShort": "C",
   "Countries": "China"
 },
 {
   "UID": 921,
   "ID": 778,
   "Name": "Lushan National Park",
   "DateInscribed": 1996,
   "Longitude": 115.8666667,
   "Latitude": 29.43333333,
   "Hectares": 0,
   "Category": "Cultural",
   "CategoryShort": "C",
   "Countries": "China"
 },
 {
   "UID": 922,
   "ID": 779,
   "Name": "Mount Emei Scenic Area, including Leshan Giant Buddha Scenic Area",
   "DateInscribed": 1996,
   "Longitude": 103.76925,
   "Latitude": 29.5449,
   "Hectares": 15400,
   "Category": "Mixed",
   "CategoryShort": "C/N",
   "Countries": "China"
 },
 {
   "UID": 1934,
   "ID": 811,
   "Name": "Old Town of Lijiang",
   "DateInscribed": 1997,
   "Longitude": 100.23333,
   "Latitude": 26.86667,
   "Hectares": 145.6,
   "Category": "Cultural",
   "CategoryShort": "C",
   "Countries": "China"
 },
 {
   "UID": 959,
   "ID": 812,
   "Name": "Ancient City of Ping Yao",
   "DateInscribed": 1997,
   "Longitude": 112.15444,
   "Latitude": 37.20139,
   "Hectares": 245.62,
   "Category": "Cultural",
   "CategoryShort": "C",
   "Countries": "China"
 },
 {
   "UID": 961,
   "ID": 813,
   "Name": "Classical Gardens of Suzhou",
   "DateInscribed": 1997,
   "Longitude": 120.45,
   "Latitude": 31.31666667,
   "Hectares": 11.922,
   "Category": "Cultural",
   "CategoryShort": "C",
   "Countries": "China"
 },
 {
   "UID": 1032,
   "ID": 880,
   "Name": "Summer Palace, an Imperial Garden in Beijing",
   "DateInscribed": 1998,
   "Longitude": 116.1411111,
   "Latitude": 39.91055556,
   "Hectares": 297,
   "Category": "Cultural",
   "CategoryShort": "C",
   "Countries": "China"
 },
 {
   "UID": 1033,
   "ID": 881,
   "Name": "Temple of Heaven: an Imperial Sacrificial Altar in Beijing",
   "DateInscribed": 1998,
   "Longitude": 116.4447222,
   "Latitude": 39.84555556,
   "Hectares": 215,
   "Category": "Cultural",
   "CategoryShort": "C",
   "Countries": "China"
 },
 {
   "UID": 2245,
   "ID": 911,
   "Name": "Mount Wuyi",
   "DateInscribed": 1999,
   "Longitude": 117.68333,
   "Latitude": 27.71667,
   "Hectares": 107044,
   "Category": "Mixed",
   "CategoryShort": "C/N",
   "Countries": "China"
 },
 {
   "UID": 1065,
   "ID": 912,
   "Name": "Dazu Rock Carvings",
   "DateInscribed": 1999,
   "Longitude": 105.705,
   "Latitude": 29.70111,
   "Hectares": 20.41,
   "Category": "Cultural",
   "CategoryShort": "C",
   "Countries": "China"
 },
 {
   "UID": 1167,
   "ID": 1001,
   "Name": "Mount Qingcheng and the Dujiangyan Irrigation System",
   "DateInscribed": 2000,
   "Longitude": 103.60528,
   "Latitude": 31.00167,
   "Hectares": 0,
   "Category": "Cultural",
   "CategoryShort": "C",
   "Countries": "China"
 },
 {
   "UID": 1168,
   "ID": 1002,
   "Name": "Ancient Villages in Southern Anhui - Xidi and Hongcun",
   "DateInscribed": 2000,
   "Longitude": 117.9875,
   "Latitude": 29.90444444,
   "Hectares": 52,
   "Category": "Cultural",
   "CategoryShort": "C",
   "Countries": "China"
 },
 {
   "UID": 1169,
   "ID": 1003,
   "Name": "Longmen Grottoes",
   "DateInscribed": 2000,
   "Longitude": 112.4666667,
   "Latitude": 34.46666667,
   "Hectares": 331,
   "Category": "Cultural",
   "CategoryShort": "C",
   "Countries": "China"
 },
 {
   "UID": 1172,
   "ID": 1004,
   "Name": "Imperial Tombs of the Ming and Qing Dynasties",
   "DateInscribed": 2000,
   "Longitude": 124.7938889,
   "Latitude": 41.70722222,
   "Hectares": 3434.9399,
   "Category": "Cultural",
   "CategoryShort": "C",
   "Countries": "China"
 },
 {
   "UID": 1213,
   "ID": 1039,
   "Name": "Yungang Grottoes",
   "DateInscribed": 2001,
   "Longitude": 113.12222,
   "Latitude": 40.10972,
   "Hectares": 348.75,
   "Category": "Cultural",
   "CategoryShort": "C",
   "Countries": "China"
 },
 {
   "UID": 1731,
   "ID": 1083,
   "Name": "Three Parallel Rivers of Yunnan Protected Areas",
   "DateInscribed": 2003,
   "Longitude": 98.40638889,
   "Latitude": 27.895,
   "Hectares": null,
   "Category": "Natural",
   "CategoryShort": "N",
   "Countries": "China"
 },
 {
   "UID": 1289,
   "ID": 1110,
   "Name": "Historic Centre of Macao",
   "DateInscribed": 2005,
   "Longitude": 113.5364611,
   "Latitude": 22.19129194,
   "Hectares": 16.1678,
   "Category": "Cultural",
   "CategoryShort": "C",
   "Countries": "China"
 },
 {
   "UID": 1877,
   "ID": 1111,
   "Name": "Cultural Landscape of Honghe Hani Rice Terraces",
   "DateInscribed": 2013,
   "Longitude": 102.7799806,
   "Latitude": 23.09327778,
   "Hectares": 16603.22,
   "Category": "Cultural",
   "CategoryShort": "C",
   "Countries": "China"
 },
 {
   "UID": 1459,
   "ID": 1112,
   "Name": "Kaiping Diaolou and Villages",
   "DateInscribed": 2007,
   "Longitude": 112.5658611,
   "Latitude": 22.28551944,
   "Hectares": 371.948,
   "Category": "Cultural",
   "CategoryShort": "C",
   "Countries": "China"
 },
 {
   "UID": 1505,
   "ID": 1113,
   "Name": "Fujian Tulou",
   "DateInscribed": 2008,
   "Longitude": 117.6858333,
   "Latitude": 25.02305556,
   "Hectares": 152.65,
   "Category": "Cultural",
   "CategoryShort": "C",
   "Countries": "China"
 },
 {
   "UID": 1293,
   "ID": 1114,
   "Name": "Yin Xu",
   "DateInscribed": 2006,
   "Longitude": 114.3138889,
   "Latitude": 36.12666667,
   "Hectares": 414,
   "Category": "Cultural",
   "CategoryShort": "C",
   "Countries": "China"
 },
 {
   "UID": 1315,
   "ID": 1135,
   "Name": "Capital Cities and Tombs of the Ancient Koguryo Kingdom",
   "DateInscribed": 2004,
   "Longitude": 126.1872222,
   "Latitude": 41.15694444,
   "Hectares": 4164.8599,
   "Category": "Cultural",
   "CategoryShort": "C",
   "Countries": "China"
 },
 {
   "UID": 1390,
   "ID": 1213,
   "Name": "Sichuan Giant Panda Sanctuaries - Wolong, Mt Siguniang and Jiajin Mountains",
   "DateInscribed": 2006,
   "Longitude": 103,
   "Latitude": 30.83333333,
   "Hectares": 924500,
   "Category": "Natural",
   "CategoryShort": "N",
   "Countries": "China"
 },
 {
   "UID": 1965,
   "ID": 1248,
   "Name": "South China Karst",
   "DateInscribed": 2007,
   "Longitude": 110.3544444,
   "Latitude": 24.92333333,
   "Hectares": 49537,
   "Category": "Natural",
   "CategoryShort": "N",
   "Countries": "China"
 },
 {
   "UID": 1587,
   "ID": 1279,
   "Name": "Mount Wutai",
   "DateInscribed": 2009,
   "Longitude": 113.5633333,
   "Latitude": 39.03055556,
   "Hectares": 18415,
   "Category": "Cultural",
   "CategoryShort": "C",
   "Countries": "China"
 },
 {
   "UID": 1523,
   "ID": 1292,
   "Name": "Mount Sanqingshan National Park",
   "DateInscribed": 2008,
   "Longitude": 118.0644444,
   "Latitude": 28.91583333,
   "Hectares": 22950,
   "Category": "Natural",
   "CategoryShort": "N",
   "Countries": "China"
 },
 {
   "UID": 1726,
   "ID": 1305,
   "Name": "Historic Monuments of Dengfeng in 'The Centre of Heaven and Earth'",
   "DateInscribed": 2010,
   "Longitude": 113.0677194,
   "Latitude": 34.45874722,
   "Hectares": 825,
   "Category": "Cultural",
   "CategoryShort": "C",
   "Countries": "China"
 },
 {
   "UID": 1765,
   "ID": 1334,
   "Name": "West Lake Cultural Landscape of Hangzhou",
   "DateInscribed": 2011,
   "Longitude": 120.1408333,
   "Latitude": 30.2375,
   "Hectares": 3322.88,
   "Category": "Cultural",
   "CategoryShort": "C",
   "Countries": "China"
 },
 {
   "UID": 1676,
   "ID": 1335,
   "Name": "China Danxia",
   "DateInscribed": 2010,
   "Longitude": 106.0425,
   "Latitude": 28.42194444,
   "Hectares": 82151,
   "Category": "Natural",
   "CategoryShort": "N",
   "Countries": "China"
 },
 {
   "UID": 1803,
   "ID": 1388,
   "Name": "Chengjiang Fossil Site",
   "DateInscribed": 2012,
   "Longitude": 102.9772222,
   "Latitude": 24.66888889,
   "Hectares": 512,
   "Category": "Natural",
   "CategoryShort": "N",
   "Countries": "China"
 },
 {
   "UID": 1804,
   "ID": 1389,
   "Name": "Site of Xanadu",
   "DateInscribed": 2012,
   "Longitude": 116.1851278,
   "Latitude": 42.358,
   "Hectares": 25131.27,
   "Category": "Cultural",
   "CategoryShort": "C",
   "Countries": "China"
 },
 {
   "UID": 1876,
   "ID": 1414,
   "Name": "Xinjiang Tianshan",
   "DateInscribed": 2013,
   "Longitude": 80.35416667,
   "Latitude": 41.96833333,
   "Hectares": 606833,
   "Category": "Natural",
   "CategoryShort": "N",
   "Countries": "China"
 },
 {
   "UID": 2181,
   "ID": 1443,
   "Name": "The Grand Canal",
   "DateInscribed": 2014,
   "Longitude": 112.4683333,
   "Latitude": 34.69388889,
   "Hectares": 20819.11,
   "Category": "Cultural",
   "CategoryShort": "C",
   "Countries": "China"
 },
 {
   "UID": 2035,
   "ID": 1474,
   "Name": "Tusi Sites",
   "DateInscribed": 2015,
   "Longitude": 109.9669444,
   "Latitude": 28.99861111,
   "Hectares": 781.28,
   "Category": "Cultural",
   "CategoryShort": "C",
   "Countries": "China"
 },
 {
   "UID": 2100,
   "ID": 1508,
   "Name": "Zuojiang Huashan Rock Art Cultural Landscape",
   "DateInscribed": 2016,
   "Longitude": 107.0230556,
   "Latitude": 22.25555556,
   "Hectares": 6621.6,
   "Category": "Cultural",
   "CategoryShort": "C",
   "Countries": "China"
 },
 {
   "UID": 2101,
   "ID": 1509,
   "Name": "Hubei Shennongjia",
   "DateInscribed": 2016,
   "Longitude": 110.2438889,
   "Latitude": 31.46972222,
   "Hectares": 73318,
   "Category": "Natural",
   "CategoryShort": "N",
   "Countries": "China"
 },
 {
   "UID": 2141,
   "ID": 1540,
   "Name": "Qinghai Hoh Xil",
   "DateInscribed": 2017,
   "Longitude": 92.43916667,
   "Latitude": 35.38027778,
   "Hectares": 3735632,
   "Category": "Natural",
   "CategoryShort": "N",
   "Countries": "China"
 },
 {
   "UID": 2142,
   "ID": 1541,
   "Name": "Kulangsu, a Historic International Settlement",
   "DateInscribed": 2017,
   "Longitude": 118.0619444,
   "Latitude": 24.4475,
   "Hectares": 316.2,
   "Category": "Cultural",
   "CategoryShort": "C",
   "Countries": "China"
 },
 {
   "UID": 2224,
   "ID": 1559,
   "Name": "Fanjingshan",
   "DateInscribed": 2018,
   "Longitude": 108.68,
   "Latitude": 27.89555556,
   "Hectares": 40275,
   "Category": "Natural",
   "CategoryShort": "N",
   "Countries": "China"
 },
 {
   "UID": 2277,
   "ID": 1592,
   "Name": "Archaeological Ruins of Liangzhu City",
   "DateInscribed": 2019,
   "Longitude": 119.9908333,
   "Latitude": 30.39555556,
   "Hectares": 1433.66,
   "Category": "Cultural",
   "CategoryShort": "C",
   "Countries": "China"
 },
 {
   "UID": 2304,
   "ID": 1606,
   "Name": "Migratory Bird Sanctuaries along the Coast of Yellow Sea-Bohai Gulf of China (Phase I)",
   "DateInscribed": 2019,
   "Longitude": 121.0168139,
   "Latitude": 32.93194444,
   "Hectares": 188643,
   "Category": "Natural",
   "CategoryShort": "N",
   "Countries": "China"
 },
 {
   "UID": 319,
   "ID": 285,
   "Name": "Port, Fortresses and Group of Monuments, Cartagena",
   "DateInscribed": 1984,
   "Longitude": -75.53333333,
   "Latitude": 10.41666667,
   "Hectares": 0,
   "Category": "Cultural",
   "CategoryShort": "C",
   "Countries": "Colombia"
 },
 {
   "UID": 841,
   "ID": 711,
   "Name": "Los Katíos National Park",
   "DateInscribed": 1994,
   "Longitude": -77,
   "Latitude": 7.666666667,
   "Hectares": 72000,
   "Category": "Natural",
   "CategoryShort": "N",
   "Countries": "Colombia"
 },
 {
   "UID": 876,
   "ID": 742,
   "Name": "Historic Centre of Santa Cruz de Mompox",
   "DateInscribed": 1995,
   "Longitude": -74.43333333,
   "Latitude": 9.233333333,
   "Hectares": 0,
   "Category": "Cultural",
   "CategoryShort": "C",
   "Countries": "Colombia"
 },
 {
   "UID": 877,
   "ID": 743,
   "Name": "National Archeological Park of Tierradentro",
   "DateInscribed": 1995,
   "Longitude": -76.03333333,
   "Latitude": 2.583333333,
   "Hectares": 0,
   "Category": "Cultural",
   "CategoryShort": "C",
   "Countries": "Colombia"
 },
 {
   "UID": 878,
   "ID": 744,
   "Name": "San Agustín Archaeological Park",
   "DateInscribed": 1995,
   "Longitude": -76.23333333,
   "Latitude": 1.916666667,
   "Hectares": 0,
   "Category": "Cultural",
   "CategoryShort": "C",
   "Countries": "Colombia"
 },
 {
   "UID": 1787,
   "ID": 1121,
   "Name": "Coffee Cultural Landscape of Colombia",
   "DateInscribed": 2011,
   "Longitude": -75.68166667,
   "Latitude": 5.471666667,
   "Hectares": 141120,
   "Category": "Cultural",
   "CategoryShort": "C",
   "Countries": "Colombia"
 },
 {
   "UID": 2213,
   "ID": 1174,
   "Name": "Chiribiquete National Park - 'The Maloca of the Jaguar'",
   "DateInscribed": 2018,
   "Longitude": -72.79722222,
   "Latitude": 0.525277778,
   "Hectares": 2782354,
   "Category": "Mixed",
   "CategoryShort": "C/N",
   "Countries": "Colombia"
 },
 {
   "UID": 1393,
   "ID": 1216,
   "Name": "Malpelo Fauna and Flora Sanctuary",
   "DateInscribed": 2006,
   "Longitude": -81.61666667,
   "Latitude": 3.966666667,
   "Hectares": 857500,
   "Category": "Natural",
   "CategoryShort": "N",
   "Countries": "Colombia"
 },
 {
   "UID": 969,
   "ID": 820,
   "Name": "Cocos Island National Park",
   "DateInscribed": 1997,
   "Longitude": -87.06666667,
   "Latitude": 5.533333333,
   "Hectares": 199790,
   "Category": "Natural",
   "CategoryShort": "N",
   "Countries": "Costa Rica"
 },
 {
   "UID": 1083,
   "ID": 928,
   "Name": "Area de Conservación Guanacaste",
   "DateInscribed": 1999,
   "Longitude": -85.61666667,
   "Latitude": 10.85,
   "Hectares": 147000,
   "Category": "Natural",
   "CategoryShort": "N",
   "Countries": "Costa Rica"
 },
 {
   "UID": 1997,
   "ID": 1453,
   "Name": "Precolumbian Chiefdom Settlements with Stone Spheres of the Diquís",
   "DateInscribed": 2014,
   "Longitude": -83.4775,
   "Latitude": 8.911388889,
   "Hectares": 24.73,
   "Category": "Cultural",
   "CategoryShort": "C",
   "Countries": "Costa Rica"
 },
 {
   "UID": 216,
   "ID": 195,
   "Name": "Taï National Park",
   "DateInscribed": 1982,
   "Longitude": -7.66667,
   "Latitude": 5.75,
   "Hectares": 330000,
   "Category": "Natural",
   "CategoryShort": "N",
   "Countries": "Côte d'Ivoire"
 },
 {
   "UID": 252,
   "ID": 227,
   "Name": "Comoé National Park",
   "DateInscribed": 1983,
   "Longitude": -4,
   "Latitude": 9,
   "Hectares": 1150000,
   "Category": "Natural",
   "CategoryShort": "N",
   "Countries": "Côte d'Ivoire"
 },
 {
   "UID": 1919,
   "ID": 1322,
   "Name": "Historic Town of Grand-Bassam",
   "DateInscribed": 2012,
   "Longitude": 3.736388889,
   "Latitude": 5.195833333,
   "Hectares": 109.89,
   "Category": "Cultural",
   "CategoryShort": "C",
   "Countries": "Côte d'Ivoire"
 },
 {
   "UID": 2315,
   "ID": 95,
   "Name": "Old City of Dubrovnik",
   "DateInscribed": 1979,
   "Longitude": 18.09139,
   "Latitude": 42.65056,
   "Hectares": 96.7,
   "Category": "Cultural",
   "CategoryShort": "C",
   "Countries": "Croatia"
 },
 {
   "UID": 105,
   "ID": 97,
   "Name": "Historical Complex of Split with the Palace of Diocletian",
   "DateInscribed": 1979,
   "Longitude": 16.44333,
   "Latitude": 43.50944,
   "Hectares": 20.8,
   "Category": "Cultural",
   "CategoryShort": "C",
   "Countries": "Croatia"
 },
 {
   "UID": 106,
   "ID": 98,
   "Name": "Plitvice Lakes National Park",
   "DateInscribed": 1979,
   "Longitude": 15.61444,
   "Latitude": 44.87778,
   "Hectares": 29630.77,
   "Category": "Natural",
   "CategoryShort": "N",
   "Countries": "Croatia"
 },
 {
   "UID": 956,
   "ID": 809,
   "Name": "Episcopal Complex of the Euphrasian Basilica in the Historic Centre of Poreč",
   "DateInscribed": 1997,
   "Longitude": 13.59444,
   "Latitude": 45.22917,
   "Hectares": 1.1,
   "Category": "Cultural",
   "CategoryShort": "C",
   "Countries": "Croatia"
 },
 {
   "UID": 957,
   "ID": 810,
   "Name": "Historic City of Trogir",
   "DateInscribed": 1997,
   "Longitude": 16.25167,
   "Latitude": 43.5125,
   "Hectares": 6.4,
   "Category": "Cultural",
   "CategoryShort": "C",
   "Countries": "Croatia"
 },
 {
   "UID": 1127,
   "ID": 963,
   "Name": "The Cathedral of St James in Šibenik",
   "DateInscribed": 2000,
   "Longitude": 15.89038,
   "Latitude": 43.73629,
   "Hectares": 0.1,
   "Category": "Cultural",
   "CategoryShort": "C",
   "Countries": "Croatia"
 },
 {
   "UID": 1484,
   "ID": 1240,
   "Name": "Stari Grad Plain",
   "DateInscribed": 2008,
   "Longitude": 16.63861111,
   "Latitude": 43.18166667,
   "Hectares": 1376.53,
   "Category": "Cultural",
   "CategoryShort": "C",
   "Countries": "Croatia"
 },
 {
   "UID": 225,
   "ID": 204,
   "Name": "Old Havana and its Fortification System",
   "DateInscribed": 1982,
   "Longitude": -82.35,
   "Latitude": 23.13333333,
   "Hectares": 238.7,
   "Category": "Cultural",
   "CategoryShort": "C",
   "Countries": "Cuba"
 },
 {
   "UID": 535,
   "ID": 460,
   "Name": "Trinidad and the Valley de los Ingenios",
   "DateInscribed": 1988,
   "Longitude": -79.98444444,
   "Latitude": 21.80305556,
   "Hectares": 0,
   "Category": "Cultural",
   "CategoryShort": "C",
   "Countries": "Cuba"
 },
 {
   "UID": 989,
   "ID": 839,
   "Name": "Alejandro de Humboldt National Park",
   "DateInscribed": 2001,
   "Longitude": -75,
   "Latitude": 20.45,
   "Hectares": 71140,
   "Category": "Natural",
   "CategoryShort": "N",
   "Countries": "Cuba"
 },
 {
   "UID": 991,
   "ID": 840,
   "Name": "Viñales Valley",
   "DateInscribed": 1999,
   "Longitude": -83.71667,
   "Latitude": 22.61667,
   "Hectares": 0,
   "Category": "Cultural",
   "CategoryShort": "C",
   "Countries": "Cuba"
 },
 {
   "UID": 992,
   "ID": 841,
   "Name": "San Pedro de la Roca Castle, Santiago de Cuba",
   "DateInscribed": 1997,
   "Longitude": -75.87083333,
   "Latitude": 19.96666667,
   "Hectares": 93.88,
   "Category": "Cultural",
   "CategoryShort": "C",
   "Countries": "Cuba"
 },
 {
   "UID": 1041,
   "ID": 889,
   "Name": "Desembarco del Granma National Park",
   "DateInscribed": 1999,
   "Longitude": -77.63333,
   "Latitude": 19.88333,
   "Hectares": 41863,
   "Category": "Natural",
   "CategoryShort": "N",
   "Countries": "Cuba"
 },
 {
   "UID": 1178,
   "ID": 1008,
   "Name": "Archaeological Landscape of the First Coffee Plantations in the South-East of Cuba",
   "DateInscribed": 2000,
   "Longitude": -75.39138889,
   "Latitude": 20.03,
   "Hectares": 81475,
   "Category": "Cultural",
   "CategoryShort": "C",
   "Countries": "Cuba"
 },
 {
   "UID": 1379,
   "ID": 1202,
   "Name": "Urban Historic Centre of Cienfuegos",
   "DateInscribed": 2005,
   "Longitude": -80.45278,
   "Latitude": 22.14722,
   "Hectares": 70,
   "Category": "Cultural",
   "CategoryShort": "C",
   "Countries": "Cuba"
 },
 {
   "UID": 1482,
   "ID": 1270,
   "Name": "Historic Centre of Camagüey",
   "DateInscribed": 2008,
   "Longitude": -77.91861111,
   "Latitude": 21.37861111,
   "Hectares": 54,
   "Category": "Cultural",
   "CategoryShort": "C",
   "Countries": "Cuba"
 },
 {
   "UID": 85,
   "ID": 79,
   "Name": "Paphos",
   "DateInscribed": 1980,
   "Longitude": 32.40556,
   "Latitude": 34.75833,
   "Hectares": 162.0171,
   "Category": "Cultural",
   "CategoryShort": "C",
   "Countries": "Cyprus"
 },
 {
   "UID": 401,
   "ID": 351,
   "Name": "Painted Churches in the Troodos Region",
   "DateInscribed": 1985,
   "Longitude": 33.09583333,
   "Latitude": 34.92027778,
   "Hectares": 3.693,
   "Category": "Cultural",
   "CategoryShort": "C",
   "Countries": "Cyprus"
 },
 {
   "UID": 1927,
   "ID": 848,
   "Name": "Choirokoitia",
   "DateInscribed": 1998,
   "Longitude": 33.34333,
   "Latitude": 34.79833,
   "Hectares": 6.2,
   "Category": "Cultural",
   "CategoryShort": "C",
   "Countries": "Cyprus"
 },
 {
   "UID": 1928,
   "ID": 616,
   "Name": "Historic Centre of Prague",
   "DateInscribed": 1992,
   "Longitude": 14.41944,
   "Latitude": 50.08972,
   "Hectares": 1106.36,
   "Category": "Cultural",
   "CategoryShort": "C",
   "Countries": "Czechia"
 },
 {
   "UID": 732,
   "ID": 617,
   "Name": "Historic Centre of Český Krumlov",
   "DateInscribed": 1992,
   "Longitude": 14.31666667,
   "Latitude": 48.81666667,
   "Hectares": 51.91,
   "Category": "Cultural",
   "CategoryShort": "C",
   "Countries": "Czechia"
 },
 {
   "UID": 738,
   "ID": 621,
   "Name": "Historic Centre of Telč",
   "DateInscribed": 1992,
   "Longitude": 15.45,
   "Latitude": 49.18333,
   "Hectares": 36,
   "Category": "Cultural",
   "CategoryShort": "C",
   "Countries": "Czechia"
 },
 {
   "UID": 816,
   "ID": 690,
   "Name": "Pilgrimage Church of St John of Nepomuk at Zelená Hora",
   "DateInscribed": 1994,
   "Longitude": 15.94205833,
   "Latitude": 49.5802,
   "Hectares": 0.64,
   "Category": "Cultural",
   "CategoryShort": "C",
   "Countries": "Czechia"
 },
 {
   "UID": 865,
   "ID": 732,
   "Name": "Kutná Hora: Historical Town Centre with the Church of St Barbara and the Cathedral of Our Lady at Sedlec",
   "DateInscribed": 1995,
   "Longitude": 15.26666667,
   "Latitude": 49.95,
   "Hectares": 62.437,
   "Category": "Cultural",
   "CategoryShort": "C",
   "Countries": "Czechia"
 },
 {
   "UID": 899,
   "ID": 763,
   "Name": "Lednice-Valtice Cultural Landscape",
   "DateInscribed": 1996,
   "Longitude": 16.775,
   "Latitude": 48.77583,
   "Hectares": 14320,
   "Category": "Cultural",
   "CategoryShort": "C",
   "Countries": "Czechia"
 },
 {
   "UID": 1010,
   "ID": 859,
   "Name": "Holy Trinity Column in Olomouc",
   "DateInscribed": 2000,
   "Longitude": 17.25045833,
   "Latitude": 49.59393611,
   "Hectares": 0.05,
   "Category": "Cultural",
   "CategoryShort": "C",
   "Countries": "Czechia"
 },
 {
   "UID": 1011,
   "ID": 860,
   "Name": "Gardens and Castle at Kroměříž",
   "DateInscribed": 1998,
   "Longitude": 17.37722222,
   "Latitude": 49.3,
   "Hectares": 74.5,
   "Category": "Cultural",
   "CategoryShort": "C",
   "Countries": "Czechia"
 },
 {
   "UID": 1012,
   "ID": 861,
   "Name": "Holašovice Historic Village",
   "DateInscribed": 1998,
   "Longitude": 14.25277778,
   "Latitude": 48.95972222,
   "Hectares": 11.4,
   "Category": "Cultural",
   "CategoryShort": "C",
   "Countries": "Czechia"
 },
 {
   "UID": 1054,
   "ID": 901,
   "Name": "Litomyšl Castle",
   "DateInscribed": 1999,
   "Longitude": 16.31444,
   "Latitude": 49.87361,
   "Hectares": 4.25,
   "Category": "Cultural",
   "CategoryShort": "C",
   "Countries": "Czechia"
 },
 {
   "UID": 1226,
   "ID": 1052,
   "Name": "Tugendhat Villa in Brno",
   "DateInscribed": 2001,
   "Longitude": 16.61605556,
   "Latitude": 49.20718333,
   "Hectares": 0.73,
   "Category": "Cultural",
   "CategoryShort": "C",
   "Countries": "Czechia"
 },
 {
   "UID": 2258,
   "ID": 1078,
   "Name": "Jewish Quarter and St Procopius' Basilica in Třebíč",
   "DateInscribed": 2003,
   "Longitude": 15.87888889,
   "Latitude": 49.21722222,
   "Hectares": 6.55,
   "Category": "Cultural",
   "CategoryShort": "C",
   "Countries": "Czechia"
 },
 {
   "UID": 2281,
   "ID": 1589,
   "Name": "Landscape for Breeding and Training of Ceremonial Carriage Horses at Kladruby nad Labem",
   "DateInscribed": 2019,
   "Longitude": 15.48425833,
   "Latitude": 50.05665,
   "Hectares": 1310,
   "Category": "Cultural",
   "CategoryShort": "C",
   "Countries": "Czechia"
 },
 {
   "UID": 1269,
   "ID": 1091,
   "Name": "Complex of Koguryo Tombs",
   "DateInscribed": 2004,
   "Longitude": 125.415,
   "Latitude": 38.86305556,
   "Hectares": 232.9,
   "Category": "Cultural",
   "CategoryShort": "C",
   "Countries": "Democratic People's Republic of Korea"
 },
 {
   "UID": 1878,
   "ID": 1278,
   "Name": "Historic Monuments and Sites in Kaesong",
   "DateInscribed": 2013,
   "Longitude": 126.5080556,
   "Latitude": 37.98166667,
   "Hectares": 494.2,
   "Category": "Cultural",
   "CategoryShort": "C",
   "Countries": "Democratic People's Republic of Korea"
 },
 {
   "UID": 67,
   "ID": 63,
   "Name": "Virunga National Park",
   "DateInscribed": 1979,
   "Longitude": 29.16666667,
   "Latitude": 0.916666667,
   "Hectares": 800000,
   "Category": "Natural",
   "CategoryShort": "N",
   "Countries": "Democratic Republic of the Congo"
 },
 {
   "UID": 149,
   "ID": 136,
   "Name": "Garamba National Park",
   "DateInscribed": 1980,
   "Longitude": 29.25,
   "Latitude": 4,
   "Hectares": 500000,
   "Category": "Natural",
   "CategoryShort": "N",
   "Countries": "Democratic Republic of the Congo"
 },
 {
   "UID": 150,
   "ID": 137,
   "Name": "Kahuzi-Biega National Park",
   "DateInscribed": 1980,
   "Longitude": 28.75,
   "Latitude": -2.5,
   "Hectares": 600000,
   "Category": "Natural",
   "CategoryShort": "N",
   "Countries": "Democratic Republic of the Congo"
 },
 {
   "UID": 314,
   "ID": 280,
   "Name": "Salonga National Park",
   "DateInscribed": 1984,
   "Longitude": 21,
   "Latitude": -2,
   "Hectares": 3600000,
   "Category": "Natural",
   "CategoryShort": "N",
   "Countries": "Democratic Republic of the Congo"
 },
 {
   "UID": 849,
   "ID": 718,
   "Name": "Okapi Wildlife Reserve",
   "DateInscribed": 1996,
   "Longitude": 28.5,
   "Latitude": 2,
   "Hectares": 1372625,
   "Category": "Natural",
   "CategoryShort": "N",
   "Countries": "Democratic Republic of the Congo"
 },
 {
   "UID": 822,
   "ID": 695,
   "Name": "Roskilde Cathedral",
   "DateInscribed": 1995,
   "Longitude": 12.07972222,
   "Latitude": 55.64222222,
   "Hectares": 0.4,
   "Category": "Cultural",
   "CategoryShort": "C",
   "Countries": "Denmark"
 },
 {
   "UID": 824,
   "ID": 696,
   "Name": "Kronborg Castle",
   "DateInscribed": 2000,
   "Longitude": 12.62083333,
   "Latitude": 56.03889,
   "Hectares": 0,
   "Category": "Cultural",
   "CategoryShort": "C",
   "Countries": "Denmark"
 },
 {
   "UID": 2316,
   "ID": 697,
   "Name": "Jelling Mounds, Runic Stones and Church",
   "DateInscribed": 1994,
   "Longitude": 9.42,
   "Latitude": 55.75638889,
   "Hectares": 12.7,
   "Category": "Cultural",
   "CategoryShort": "C",
   "Countries": "Denmark"
 },
 {
   "UID": 1330,
   "ID": 1149,
   "Name": "Ilulissat Icefjord",
   "DateInscribed": 2004,
   "Longitude": -49.5,
   "Latitude": 69.13333333,
   "Hectares": 402400,
   "Category": "Natural",
   "CategoryShort": "N",
   "Countries": "Denmark"
 },
 {
   "UID": 1973,
   "ID": 1416,
   "Name": "Stevns Klint",
   "DateInscribed": 2014,
   "Longitude": 12.42333333,
   "Latitude": 55.26722222,
   "Hectares": 50,
   "Category": "Natural",
   "CategoryShort": "N",
   "Countries": "Denmark"
 },
 {
   "UID": 2029,
   "ID": 1468,
   "Name": "Christiansfeld, a Moravian Church Settlement",
   "DateInscribed": 2015,
   "Longitude": 9.481388889,
   "Latitude": 55.35555556,
   "Hectares": 21.2,
   "Category": "Cultural",
   "CategoryShort": "C",
   "Countries": "Denmark"
 },
 {
   "UID": 2030,
   "ID": 1469,
   "Name": "The par force hunting landscape in North Zealand",
   "DateInscribed": 2015,
   "Longitude": 12.35777778,
   "Latitude": 55.91361111,
   "Hectares": 4543,
   "Category": "Cultural",
   "CategoryShort": "C",
   "Countries": "Denmark"
 },
 {
   "UID": 2154,
   "ID": 1536,
   "Name": "Kujataa Greenland: Norse and Inuit Farming at the Edge of the Ice Cap",
   "DateInscribed": 2017,
   "Longitude": -45.59805556,
   "Latitude": 61.16444444,
   "Hectares": 34.892,
   "Category": "Cultural",
   "CategoryShort": "C",
   "Countries": "Denmark"
 },
 {
   "UID": 2221,
   "ID": 1557,
   "Name": "Aasivissuit - Nipisat. Inuit Hunting Ground between Ice and Sea",
   "DateInscribed": 2018,
   "Longitude": -51.43320556,
   "Latitude": 67.06393056,
   "Hectares": 417800,
   "Category": "Cultural",
   "CategoryShort": "C",
   "Countries": "Denmark"
 },
 {
   "UID": 962,
   "ID": 814,
   "Name": "Morne Trois Pitons National Park",
   "DateInscribed": 1997,
   "Longitude": -61.28333333,
   "Latitude": 15.26666667,
   "Hectares": 6857,
   "Category": "Natural",
   "CategoryShort": "N",
   "Countries": "Dominica"
 },
 {
   "UID": 615,
   "ID": 526,
   "Name": "Colonial City of Santo Domingo",
   "DateInscribed": 1990,
   "Longitude": -69.91666667,
   "Latitude": 18.48333333,
   "Hectares": 106,
   "Category": "Cultural",
   "CategoryShort": "C",
   "Countries": "Dominican Republic"
 },
 {
   "UID": 4,
   "ID": 1,
   "Name": "Galápagos Islands",
   "DateInscribed": 1978,
   "Longitude": -91,
   "Latitude": -0.81667,
   "Hectares": 14066514,
   "Category": "Natural",
   "CategoryShort": "N",
   "Countries": "Ecuador"
 },
 {
   "UID": 5,
   "ID": 2,
   "Name": "City of Quito",
   "DateInscribed": 1978,
   "Longitude": -78.5,
   "Latitude": -0.003888889,
   "Hectares": 320,
   "Category": "Cultural",
   "CategoryShort": "C",
   "Countries": "Ecuador"
 },
 {
   "UID": 290,
   "ID": 260,
   "Name": "Sangay National Park",
   "DateInscribed": 1983,
   "Longitude": -78.33333,
   "Latitude": -1.83333,
   "Hectares": 271925,
   "Category": "Natural",
   "CategoryShort": "N",
   "Countries": "Ecuador"
 },
 {
   "UID": 1014,
   "ID": 863,
   "Name": "Historic Centre of Santa Ana de los Ríos de Cuenca",
   "DateInscribed": 1999,
   "Longitude": -78.98333333,
   "Latitude": -2.883333333,
   "Hectares": 224.14,
   "Category": "Cultural",
   "CategoryShort": "C",
   "Countries": "Ecuador"
 },
 {
   "UID": 92,
   "ID": 86,
   "Name": "Memphis and its Necropolis - the Pyramid Fields from Giza to Dahshur",
   "DateInscribed": 1979,
   "Longitude": 31.13041,
   "Latitude": 29.97604,
   "Hectares": 16358.52,
   "Category": "Cultural",
   "CategoryShort": "C",
   "Countries": "Egypt"
 },
 {
   "UID": 93,
   "ID": 87,
   "Name": "Ancient Thebes with its Necropolis",
   "DateInscribed": 1979,
   "Longitude": 32.6,
   "Latitude": 25.73333,
   "Hectares": 7390.16,
   "Category": "Cultural",
   "CategoryShort": "C",
   "Countries": "Egypt"
 },
 {
   "UID": 94,
   "ID": 88,
   "Name": "Nubian Monuments from Abu Simbel to Philae",
   "DateInscribed": 1979,
   "Longitude": 31.62580556,
   "Latitude": 22.33722222,
   "Hectares": 374.48,
   "Category": "Cultural",
   "CategoryShort": "C",
   "Countries": "Egypt"
 },
 {
   "UID": 95,
   "ID": 89,
   "Name": "Historic Cairo",
   "DateInscribed": 1979,
   "Longitude": 31.26111,
   "Latitude": 30.05,
   "Hectares": 523.66,
   "Category": "Cultural",
   "CategoryShort": "C",
   "Countries": "Egypt"
 },
 {
   "UID": 96,
   "ID": 90,
   "Name": "Abu Mena",
   "DateInscribed": 1979,
   "Longitude": 29.66666667,
   "Latitude": 30.83583333,
   "Hectares": 182.72,
   "Category": "Cultural",
   "CategoryShort": "C",
   "Countries": "Egypt"
 },
 {
   "UID": 1116,
   "ID": 954,
   "Name": "Saint Catherine Area",
   "DateInscribed": 2002,
   "Longitude": 33.97543,
   "Latitude": 28.55623,
   "Hectares": 60100,
   "Category": "Cultural",
   "CategoryShort": "C",
   "Countries": "Egypt"
 },
 {
   "UID": 1363,
   "ID": 1186,
   "Name": "Wadi Al-Hitan (Whale Valley)",
   "DateInscribed": 2005,
   "Longitude": 30.18333,
   "Latitude": 29.33333,
   "Hectares": 20015,
   "Category": "Natural",
   "CategoryShort": "N",
   "Countries": "Egypt"
 },
 {
   "UID": 799,
   "ID": 675,
   "Name": "Joya de Cerén Archaeological Site",
   "DateInscribed": 1993,
   "Longitude": -89.36916667,
   "Latitude": 13.8275,
   "Hectares": 3200,
   "Category": "Cultural",
   "CategoryShort": "C",
   "Countries": "El Salvador"
 },
 {
   "UID": 2131,
   "ID": 1550,
   "Name": "Asmara: A Modernist African City",
   "DateInscribed": 2017,
   "Longitude": 38.93583333,
   "Latitude": 15.33527778,
   "Hectares": 481,
   "Category": "Cultural",
   "CategoryShort": "C",
   "Countries": "Eritrea"
 },
 {
   "UID": 1626,
   "ID": 822,
   "Name": "Historic Centre (Old Town) of Tallinn",
   "DateInscribed": 1997,
   "Longitude": 24.73333333,
   "Latitude": 59.43333,
   "Hectares": 113,
   "Category": "Cultural",
   "CategoryShort": "C",
   "Countries": "Estonia"
 },
 {
   "UID": 12,
   "ID": 9,
   "Name": "Simien National Park",
   "DateInscribed": 1978,
   "Longitude": 38.06666667,
   "Latitude": 13.18333333,
   "Hectares": 13600,
   "Category": "Natural",
   "CategoryShort": "N",
   "Countries": "Ethiopia"
 },
 {
   "UID": 13,
   "ID": 10,
   "Name": "Lower Valley of the Awash",
   "DateInscribed": 1980,
   "Longitude": 40.57939,
   "Latitude": 11.10006,
   "Hectares": 0,
   "Category": "Cultural",
   "CategoryShort": "C",
   "Countries": "Ethiopia"
 },
 {
   "UID": 15,
   "ID": 12,
   "Name": "Tiya",
   "DateInscribed": 1980,
   "Longitude": 38.6121,
   "Latitude": 8.43491,
   "Hectares": 0,
   "Category": "Cultural",
   "CategoryShort": "C",
   "Countries": "Ethiopia"
 },
 {
   "UID": 18,
   "ID": 15,
   "Name": "Aksum",
   "DateInscribed": 1980,
   "Longitude": 38.71861,
   "Latitude": 14.13019,
   "Hectares": 0,
   "Category": "Cultural",
   "CategoryShort": "C",
   "Countries": "Ethiopia"
 },
 {
   "UID": 20,
   "ID": 17,
   "Name": "Lower Valley of the Omo",
   "DateInscribed": 1980,
   "Longitude": 35.96666667,
   "Latitude": 4.8,
   "Hectares": 0,
   "Category": "Cultural",
   "CategoryShort": "C",
   "Countries": "Ethiopia"
 },
 {
   "UID": 21,
   "ID": 18,
   "Name": "Rock-Hewn Churches, Lalibela",
   "DateInscribed": 1978,
   "Longitude": 39.04042,
   "Latitude": 12.02935,
   "Hectares": 0,
   "Category": "Cultural",
   "CategoryShort": "C",
   "Countries": "Ethiopia"
 },
 {
   "UID": 22,
   "ID": 19,
   "Name": "Fasil Ghebbi, Gondar Region",
   "DateInscribed": 1979,
   "Longitude": 37.46617,
   "Latitude": 12.60692,
   "Hectares": 0,
   "Category": "Cultural",
   "CategoryShort": "C",
   "Countries": "Ethiopia"
 },
 {
   "UID": 1452,
   "ID": 1189,
   "Name": "Harar Jugol, the Fortified Historic Town",
   "DateInscribed": 2006,
   "Longitude": 42.13777778,
   "Latitude": 9.308888889,
   "Hectares": 48,
   "Category": "Cultural",
   "CategoryShort": "C",
   "Countries": "Ethiopia"
 },
 {
   "UID": 1846,
   "ID": 1333,
   "Name": "Konso Cultural Landscape",
   "DateInscribed": 2011,
   "Longitude": 37.4,
   "Latitude": 5.3,
   "Hectares": 23000,
   "Category": "Cultural",
   "CategoryShort": "C",
   "Countries": "Ethiopia"
 },
 {
   "UID": 1886,
   "ID": 1399,
   "Name": "Levuka Historical Port Town",
   "DateInscribed": 2013,
   "Longitude": 178.8345333,
   "Latitude": -17.68337778,
   "Hectares": 69.6,
   "Category": "Cultural",
   "CategoryShort": "C",
   "Countries": "Fiji"
 },
 {
   "UID": 686,
   "ID": 579,
   "Name": "Bronze Age Burial Site of Sammallahdenmäki",
   "DateInscribed": 1999,
   "Longitude": 21.7775,
   "Latitude": 61.12056,
   "Hectares": 0,
   "Category": "Cultural",
   "CategoryShort": "C",
   "Countries": "Finland"
 },
 {
   "UID": 1718,
   "ID": 582,
   "Name": "Old Rauma",
   "DateInscribed": 1991,
   "Longitude": 21.51167,
   "Latitude": 61.12806,
   "Hectares": 29,
   "Category": "Cultural",
   "CategoryShort": "C",
   "Countries": "Finland"
 },
 {
   "UID": 690,
   "ID": 583,
   "Name": "Fortress of Suomenlinna",
   "DateInscribed": 1991,
   "Longitude": 24.98722,
   "Latitude": 60.14722,
   "Hectares": 210,
   "Category": "Cultural",
   "CategoryShort": "C",
   "Countries": "Finland"
 },
 {
   "UID": 691,
   "ID": 584,
   "Name": "Petäjävesi Old Church",
   "DateInscribed": 1994,
   "Longitude": 25.18333,
   "Latitude": 62.25,
   "Hectares": 2.98,
   "Category": "Cultural",
   "CategoryShort": "C",
   "Countries": "Finland"
 },
 {
   "UID": 885,
   "ID": 751,
   "Name": "Verla Groundwood and Board Mill",
   "DateInscribed": 1996,
   "Longitude": 26.64083,
   "Latitude": 61.06194,
   "Hectares": 22.778,
   "Category": "Cultural",
   "CategoryShort": "C",
   "Countries": "Finland"
 },
 {
   "UID": 2317,
   "ID": 80,
   "Name": "Mont-Saint-Michel and its Bay",
   "DateInscribed": 1979,
   "Longitude": -1.51056,
   "Latitude": 48.63556,
   "Hectares": 6560,
   "Category": "Cultural",
   "CategoryShort": "C",
   "Countries": "France"
 },
 {
   "UID": 1719,
   "ID": 81,
   "Name": "Chartres Cathedral",
   "DateInscribed": 1979,
   "Longitude": 1.487222222,
   "Latitude": 48.4475,
   "Hectares": 1.06,
   "Category": "Cultural",
   "CategoryShort": "C",
   "Countries": "France"
 },
 {
   "UID": 1571,
   "ID": 83,
   "Name": "Palace and Park of Versailles",
   "DateInscribed": 1979,
   "Longitude": 2.119444444,
   "Latitude": 48.805,
   "Hectares": 1070,
   "Category": "Cultural",
   "CategoryShort": "C",
   "Countries": "France"
 },
 {
   "UID": 1572,
   "ID": 84,
   "Name": "Vézelay, Church and Hill",
   "DateInscribed": 1979,
   "Longitude": 3.748333333,
   "Latitude": 47.46638889,
   "Hectares": 183,
   "Category": "Cultural",
   "CategoryShort": "C",
   "Countries": "France"
 },
 {
   "UID": 91,
   "ID": 85,
   "Name": "Prehistoric Sites and Decorated Caves of the Vézère Valley",
   "DateInscribed": 1979,
   "Longitude": 1.17,
   "Latitude": 45.0575,
   "Hectares": 0,
   "Category": "Cultural",
   "CategoryShort": "C",
   "Countries": "France"
 },
 {
   "UID": 178,
   "ID": 160,
   "Name": "Palace and Park of Fontainebleau",
   "DateInscribed": 1981,
   "Longitude": 2.698055556,
   "Latitude": 48.40194444,
   "Hectares": 144,
   "Category": "Cultural",
   "CategoryShort": "C",
   "Countries": "France"
 },
 {
   "UID": 1951,
   "ID": 162,
   "Name": "Amiens Cathedral",
   "DateInscribed": 1981,
   "Longitude": 2.301666667,
   "Latitude": 49.895,
   "Hectares": 1.54,
   "Category": "Cultural",
   "CategoryShort": "C",
   "Countries": "France"
 },
 {
   "UID": 1568,
   "ID": 163,
   "Name": "Roman Theatre and its Surroundings and the \"Triumphal Arch\" of Orange",
   "DateInscribed": 1981,
   "Longitude": 4.808416667,
   "Latitude": 44.13572222,
   "Hectares": 9.45,
   "Category": "Cultural",
   "CategoryShort": "C",
   "Countries": "France"
 },
 {
   "UID": 182,
   "ID": 164,
   "Name": "Arles, Roman and Romanesque Monuments",
   "DateInscribed": 1981,
   "Longitude": 4.630694444,
   "Latitude": 43.67763889,
   "Hectares": 65,
   "Category": "Cultural",
   "CategoryShort": "C",
   "Countries": "France"
 },
 {
   "UID": 1565,
   "ID": 165,
   "Name": "Cistercian Abbey of Fontenay",
   "DateInscribed": 1981,
   "Longitude": 4.38911,
   "Latitude": 47.63944,
   "Hectares": 5.77,
   "Category": "Cultural",
   "CategoryShort": "C",
   "Countries": "France"
 },
 {
   "UID": 1637,
   "ID": 203,
   "Name": "From the Great Saltworks of Salins-les-Bains to the Royal Saltworks of Arc-et-Senans, the Production of Open-pan Salt",
   "DateInscribed": 1982,
   "Longitude": 5.876388889,
   "Latitude": 46.9375,
   "Hectares": 10.48,
   "Category": "Cultural",
   "CategoryShort": "C",
   "Countries": "France"
 },
 {
   "UID": 254,
   "ID": 228,
   "Name": "Historic Centre of Avignon: Papal Palace, Episcopal Ensemble and Avignon Bridge",
   "DateInscribed": 1995,
   "Longitude": 4.806111111,
   "Latitude": 43.95277778,
   "Hectares": 8.2,
   "Category": "Cultural",
   "CategoryShort": "C",
   "Countries": "France"
 },
 {
   "UID": 2186,
   "ID": 229,
   "Name": "Place Stanislas, Place de la Carrière and Place d'Alliance in Nancy",
   "DateInscribed": 1983,
   "Longitude": 6.183333333,
   "Latitude": 48.69361111,
   "Hectares": 7,
   "Category": "Cultural",
   "CategoryShort": "C",
   "Countries": "France"
 },
 {
   "UID": 2118,
   "ID": 230,
   "Name": "Abbey Church of Saint-Savin sur Gartempe",
   "DateInscribed": 1983,
   "Longitude": 0.86611,
   "Latitude": 46.56472,
   "Hectares": 1.61,
   "Category": "Cultural",
   "CategoryShort": "C",
   "Countries": "France"
 },
 {
   "UID": 288,
   "ID": 258,
   "Name": "Gulf of Porto: Calanche of Piana, Gulf of Girolata, Scandola Reserve",
   "DateInscribed": 1983,
   "Longitude": 8.628833333,
   "Latitude": 42.32519444,
   "Hectares": 11800,
   "Category": "Natural",
   "CategoryShort": "N",
   "Countries": "France"
 },
 {
   "UID": 1566,
   "ID": 344,
   "Name": "Pont du Gard (Roman Aqueduct)",
   "DateInscribed": 1985,
   "Longitude": 4.535277778,
   "Latitude": 43.94722222,
   "Hectares": 0.3257,
   "Category": "Cultural",
   "CategoryShort": "C",
   "Countries": "France"
 },
 {
   "UID": 393,
   "ID": 345,
   "Name": "Historic Fortified City of Carcassonne",
   "DateInscribed": 1997,
   "Longitude": 2.358888889,
   "Latitude": 43.21055556,
   "Hectares": 11,
   "Category": "Cultural",
   "CategoryShort": "C",
   "Countries": "France"
 },
 {
   "UID": 2156,
   "ID": 495,
   "Name": "Strasbourg, Grande-Île and Neustadt",
   "DateInscribed": 1988,
   "Longitude": 7.748888889,
   "Latitude": 48.58444444,
   "Hectares": 183,
   "Category": "Cultural",
   "CategoryShort": "C",
   "Countries": "France"
 },
 {
   "UID": 710,
   "ID": 600,
   "Name": "Paris, Banks of the Seine",
   "DateInscribed": 1991,
   "Longitude": 2.294166667,
   "Latitude": 48.85833333,
   "Hectares": 365,
   "Category": "Cultural",
   "CategoryShort": "C",
   "Countries": "France"
 },
 {
   "UID": 711,
   "ID": 601,
   "Name": "Cathedral of Notre-Dame, Former Abbey of Saint-Rémi and Palace of Tau, Reims",
   "DateInscribed": 1991,
   "Longitude": 4.032777778,
   "Latitude": 49.25333333,
   "Hectares": 4.16,
   "Category": "Cultural",
   "CategoryShort": "C",
   "Countries": "France"
 },
 {
   "UID": 1952,
   "ID": 635,
   "Name": "Bourges Cathedral",
   "DateInscribed": 1992,
   "Longitude": 2.398333333,
   "Latitude": 47.08222222,
   "Hectares": 0.85,
   "Category": "Cultural",
   "CategoryShort": "C",
   "Countries": "France"
 },
 {
   "UID": 910,
   "ID": 770,
   "Name": "Canal du Midi",
   "DateInscribed": 1996,
   "Longitude": 1.416388889,
   "Latitude": 43.61138889,
   "Hectares": 1172,
   "Category": "Cultural",
   "CategoryShort": "C",
   "Countries": "France"
 },
 {
   "UID": 1019,
   "ID": 868,
   "Name": "Routes of Santiago de Compostela in France",
   "DateInscribed": 1998,
   "Longitude": 0.722944444,
   "Latitude": 45.18405556,
   "Hectares": 97.21,
   "Category": "Cultural",
   "CategoryShort": "C",
   "Countries": "France"
 },
 {
   "UID": 1023,
   "ID": 872,
   "Name": "Historic Site of Lyon",
   "DateInscribed": 1998,
   "Longitude": 4.83333,
   "Latitude": 45.76722,
   "Hectares": 427,
   "Category": "Cultural",
   "CategoryShort": "C",
   "Countries": "France"
 },
 {
   "UID": 1025,
   "ID": 873,
   "Name": "Provins, Town of Medieval Fairs",
   "DateInscribed": 2001,
   "Longitude": 3.298888889,
   "Latitude": 48.55972222,
   "Hectares": 108,
   "Category": "Cultural",
   "CategoryShort": "C",
   "Countries": "France"
 },
 {
   "UID": 1088,
   "ID": 932,
   "Name": "Jurisdiction of Saint-Emilion",
   "DateInscribed": 1999,
   "Longitude": -0.155277778,
   "Latitude": 44.89472222,
   "Hectares": 7847,
   "Category": "Cultural",
   "CategoryShort": "C",
   "Countries": "France"
 },
 {
   "UID": 2250,
   "ID": 933,
   "Name": "The Loire Valley between Sully-sur-Loire and Chalonnes",
   "DateInscribed": 2000,
   "Longitude": 0.70278,
   "Latitude": 47.39889,
   "Hectares": 86021,
   "Category": "Cultural",
   "CategoryShort": "C",
   "Countries": "France"
 },
 {
   "UID": 1531,
   "ID": 1115,
   "Name": "Lagoons of New Caledonia: Reef Diversity and Associated Ecosystems",
   "DateInscribed": 2008,
   "Longitude": 164.5663889,
   "Latitude": -20.41194444,
   "Hectares": 1574300,
   "Category": "Natural",
   "CategoryShort": "N",
   "Countries": "France"
 },
 {
   "UID": 1848,
   "ID": 1153,
   "Name": "The Causses and the Cévennes, Mediterranean agro-pastoral Cultural Landscape",
   "DateInscribed": 2011,
   "Longitude": 3.473055556,
   "Latitude": 44.22027778,
   "Hectares": 302319,
   "Category": "Cultural",
   "CategoryShort": "C",
   "Countries": "France"
 },
 {
   "UID": 1358,
   "ID": 1181,
   "Name": "Le Havre, the City Rebuilt by Auguste Perret",
   "DateInscribed": 2005,
   "Longitude": 0.1075,
   "Latitude": 49.49278,
   "Hectares": 133,
   "Category": "Cultural",
   "CategoryShort": "C",
   "Countries": "France"
 },
 {
   "UID": 1433,
   "ID": 1256,
   "Name": "Bordeaux, Port of the Moon",
   "DateInscribed": 2007,
   "Longitude": -0.572222222,
   "Latitude": 44.83888889,
   "Hectares": 1731,
   "Category": "Cultural",
   "CategoryShort": "C",
   "Countries": "France"
 },
 {
   "UID": 1514,
   "ID": 1283,
   "Name": "Fortifications of Vauban",
   "DateInscribed": 2008,
   "Longitude": 6.026944444,
   "Latitude": 47.23611111,
   "Hectares": 1153.16,
   "Category": "Cultural",
   "CategoryShort": "C",
   "Countries": "France"
 },
 {
   "UID": 1604,
   "ID": 1317,
   "Name": "Pitons, cirques and remparts of Reunion Island",
   "DateInscribed": 2010,
   "Longitude": 55.48,
   "Latitude": -21.09944444,
   "Hectares": 105838,
   "Category": "Natural",
   "CategoryShort": "N",
   "Countries": "France"
 },
 {
   "UID": 1663,
   "ID": 1337,
   "Name": "Episcopal City of Albi",
   "DateInscribed": 2010,
   "Longitude": 2.1425,
   "Latitude": 43.92833333,
   "Hectares": 19.47,
   "Category": "Cultural",
   "CategoryShort": "C",
   "Countries": "France"
 },
 {
   "UID": 1776,
   "ID": 1360,
   "Name": "Nord-Pas de Calais Mining Basin",
   "DateInscribed": 2012,
   "Longitude": 3.546111111,
   "Latitude": 50.4625,
   "Hectares": 3943,
   "Category": "Cultural",
   "CategoryShort": "C",
   "Countries": "France"
 },
 {
   "UID": 2016,
   "ID": 1425,
   "Name": "The Climats, terroirs of Burgundy",
   "DateInscribed": 2015,
   "Longitude": 4.864444444,
   "Latitude": 47.05805556,
   "Hectares": 13219,
   "Category": "Cultural",
   "CategoryShort": "C",
   "Countries": "France"
 },
 {
   "UID": 1974,
   "ID": 1426,
   "Name": "Decorated Cave of Pont d’Arc, known as Grotte Chauvet-Pont d’Arc, Ardèche",
   "DateInscribed": 2014,
   "Longitude": 4.416111111,
   "Latitude": 44.3875,
   "Hectares": 9,
   "Category": "Cultural",
   "CategoryShort": "C",
   "Countries": "France"
 },
 {
   "UID": 2257,
   "ID": 1434,
   "Name": "Chaîne des Puys - Limagne fault tectonic arena",
   "DateInscribed": 2018,
   "Longitude": 2.965111111,
   "Latitude": 45.77938889,
   "Hectares": 24223,
   "Category": "Natural",
   "CategoryShort": "N",
   "Countries": "France"
 },
 {
   "UID": 2026,
   "ID": 1465,
   "Name": "Champagne Hillsides, Houses and Cellars",
   "DateInscribed": 2015,
   "Longitude": 3.946111111,
   "Latitude": 49.0775,
   "Hectares": 1101.72,
   "Category": "Cultural",
   "CategoryShort": "C",
   "Countries": "France"
 },
 {
   "UID": 2155,
   "ID": 1529,
   "Name": "Taputapuātea",
   "DateInscribed": 2017,
   "Longitude": -151.3723778,
   "Latitude": -16.8414,
   "Hectares": 2124,
   "Category": "Cultural",
   "CategoryShort": "C",
   "Countries": "France"
 },
 {
   "UID": 2300,
   "ID": 1603,
   "Name": "French Austral Lands and Seas",
   "DateInscribed": 2019,
   "Longitude": 69.35280556,
   "Latitude": -49.38036111,
   "Hectares": 67296900,
   "Category": "Natural",
   "CategoryShort": "N",
   "Countries": "France"
 },
 {
   "UID": 1547,
   "ID": 1147,
   "Name": "Ecosystem and Relict Cultural Landscape of Lopé-Okanda",
   "DateInscribed": 2007,
   "Longitude": 11.5,
   "Latitude": -0.5,
   "Hectares": 491291,
   "Category": "Mixed",
   "CategoryShort": "C/N",
   "Countries": "Gabon"
 },
 {
   "UID": 897,
   "ID": 761,
   "Name": "Kunta Kinteh Island and Related Sites",
   "DateInscribed": 2003,
   "Longitude": -16.35719444,
   "Latitude": 13.31616667,
   "Hectares": 7.5981,
   "Category": "Cultural",
   "CategoryShort": "C",
   "Countries": "Gambia (the)"
 },
 {
   "UID": 2251,
   "ID": 708,
   "Name": "Historical Monuments of Mtskheta",
   "DateInscribed": 1994,
   "Longitude": 44.71639,
   "Latitude": 41.84389,
   "Hectares": 3.85,
   "Category": "Cultural",
   "CategoryShort": "C",
   "Countries": "Georgia"
 },
 {
   "UID": 839,
   "ID": 709,
   "Name": "Upper Svaneti",
   "DateInscribed": 1996,
   "Longitude": 43.01139,
   "Latitude": 42.91639,
   "Hectares": 1.06,
   "Category": "Cultural",
   "CategoryShort": "C",
   "Countries": "Georgia"
 },
 {
   "UID": 2243,
   "ID": 710,
   "Name": "Gelati Monastery",
   "DateInscribed": 1994,
   "Longitude": 42.76833333,
   "Latitude": 42.29472222,
   "Hectares": 4.2,
   "Category": "Cultural",
   "CategoryShort": "C",
   "Countries": "Georgia"
 },
 {
   "UID": 1953,
   "ID": 3,
   "Name": "Aachen Cathedral",
   "DateInscribed": 1978,
   "Longitude": 6.084444444,
   "Latitude": 50.77444444,
   "Hectares": 0.2,
   "Category": "Cultural",
   "CategoryShort": "C",
   "Countries": "Germany"
 },
 {
   "UID": 186,
   "ID": 168,
   "Name": "Speyer Cathedral",
   "DateInscribed": 1981,
   "Longitude": 8.443055556,
   "Latitude": 49.31666667,
   "Hectares": 0,
   "Category": "Cultural",
   "CategoryShort": "C",
   "Countries": "Germany"
 },
 {
   "UID": 1735,
   "ID": 169,
   "Name": "Würzburg Residence with the Court Gardens and Residence Square",
   "DateInscribed": 1981,
   "Longitude": 9.93889,
   "Latitude": 49.79278,
   "Hectares": 14.77,
   "Category": "Cultural",
   "CategoryShort": "C",
   "Countries": "Germany"
 },
 {
   "UID": 1627,
   "ID": 187,
   "Name": "St Mary's Cathedral and St Michael's Church at Hildesheim",
   "DateInscribed": 1985,
   "Longitude": 9.94389,
   "Latitude": 52.15278,
   "Hectares": 0.58,
   "Category": "Cultural",
   "CategoryShort": "C",
   "Countries": "Germany"
 },
 {
   "UID": 1864,
   "ID": 271,
   "Name": "Pilgrimage Church of Wies",
   "DateInscribed": 1983,
   "Longitude": 10.90013889,
   "Latitude": 47.68127778,
   "Hectares": 0.1,
   "Category": "Cultural",
   "CategoryShort": "C",
   "Countries": "Germany"
 },
 {
   "UID": 1706,
   "ID": 272,
   "Name": "Hanseatic City of Lübeck",
   "DateInscribed": 1987,
   "Longitude": 10.69167,
   "Latitude": 53.86667,
   "Hectares": 81.1,
   "Category": "Cultural",
   "CategoryShort": "C",
   "Countries": "Germany"
 },
 {
   "UID": 322,
   "ID": 288,
   "Name": "Castles of Augustusburg and Falkenlust at Brühl",
   "DateInscribed": 1984,
   "Longitude": 6.909777778,
   "Latitude": 50.82502778,
   "Hectares": 89,
   "Category": "Cultural",
   "CategoryShort": "C",
   "Countries": "Germany"
 },
 {
   "UID": 1628,
   "ID": 292,
   "Name": "Cologne Cathedral",
   "DateInscribed": 1996,
   "Longitude": 6.957222222,
   "Latitude": 50.94111111,
   "Hectares": null,
   "Category": "Cultural",
   "CategoryShort": "C",
   "Countries": "Germany"
 },
 {
   "UID": 420,
   "ID": 367,
   "Name": "Roman Monuments, Cathedral of St Peter and Church of Our Lady in Trier",
   "DateInscribed": 1986,
   "Longitude": 6.633333333,
   "Latitude": 49.75,
   "Hectares": 0,
   "Category": "Cultural",
   "CategoryShort": "C",
   "Countries": "Germany"
 },
 {
   "UID": 1865,
   "ID": 515,
   "Name": "Abbey and Altenmünster of Lorsch",
   "DateInscribed": 1991,
   "Longitude": 8.56858,
   "Latitude": 49.65369,
   "Hectares": 3.34,
   "Category": "Cultural",
   "CategoryShort": "C",
   "Countries": "Germany"
 },
 {
   "UID": 624,
   "ID": 532,
   "Name": "Palaces and Parks of Potsdam and Berlin",
   "DateInscribed": 1990,
   "Longitude": 13.03333333,
   "Latitude": 52.4,
   "Hectares": 2064,
   "Category": "Cultural",
   "CategoryShort": "C",
   "Countries": "Germany"
 },
 {
   "UID": 627,
   "ID": 534,
   "Name": "Garden Kingdom of Dessau-Wörlitz",
   "DateInscribed": 2000,
   "Longitude": 12.42083,
   "Latitude": 51.8425,
   "Hectares": 14500,
   "Category": "Cultural",
   "CategoryShort": "C",
   "Countries": "Germany"
 },
 {
   "UID": 629,
   "ID": 535,
   "Name": "Collegiate Church, Castle and Old Town of Quedlinburg",
   "DateInscribed": 1994,
   "Longitude": 11.15,
   "Latitude": 51.78333,
   "Hectares": 90,
   "Category": "Cultural",
   "CategoryShort": "C",
   "Countries": "Germany"
 },
 {
   "UID": 642,
   "ID": 546,
   "Name": "Maulbronn Monastery Complex",
   "DateInscribed": 1993,
   "Longitude": 8.81306,
   "Latitude": 49.00083,
   "Hectares": 0,
   "Category": "Cultural",
   "CategoryShort": "C",
   "Countries": "Germany"
 },
 {
   "UID": 1576,
   "ID": 623,
   "Name": "Mines of Rammelsberg, Historic Town of Goslar and Upper Harz Water Management  System",
   "DateInscribed": 1992,
   "Longitude": 10.34,
   "Latitude": 51.82,
   "Hectares": 1009.89,
   "Category": "Cultural",
   "CategoryShort": "C",
   "Countries": "Germany"
 },
 {
   "UID": 742,
   "ID": 624,
   "Name": "Town of Bamberg",
   "DateInscribed": 1993,
   "Longitude": 10.88888889,
   "Latitude": 49.89166667,
   "Hectares": 142,
   "Category": "Cultural",
   "CategoryShort": "C",
   "Countries": "Germany"
 },
 {
   "UID": 813,
   "ID": 687,
   "Name": "Völklingen Ironworks",
   "DateInscribed": 1994,
   "Longitude": 6.85,
   "Latitude": 49.24444,
   "Hectares": 7.46,
   "Category": "Cultural",
   "CategoryShort": "C",
   "Countries": "Germany"
 },
 {
   "UID": 1733,
   "ID": 720,
   "Name": "Messel Pit Fossil Site",
   "DateInscribed": 1995,
   "Longitude": 8.75389,
   "Latitude": 49.91667,
   "Hectares": 42,
   "Category": "Natural",
   "CategoryShort": "N",
   "Countries": "Germany"
 },
 {
   "UID": 2158,
   "ID": 729,
   "Name": "Bauhaus and its Sites in Weimar, Dessau and Bernau",
   "DateInscribed": 1996,
   "Longitude": 11.3295,
   "Latitude": 50.97477778,
   "Hectares": 8.1614,
   "Category": "Cultural",
   "CategoryShort": "C",
   "Countries": "Germany"
 },
 {
   "UID": 926,
   "ID": 783,
   "Name": "Luther Memorials in Eisleben and Wittenberg",
   "DateInscribed": 1996,
   "Longitude": 12.65278,
   "Latitude": 51.86472,
   "Hectares": 0.83,
   "Category": "Cultural",
   "CategoryShort": "C",
   "Countries": "Germany"
 },
 {
   "UID": 997,
   "ID": 846,
   "Name": "Classical Weimar",
   "DateInscribed": 1998,
   "Longitude": 11.32861,
   "Latitude": 50.9775,
   "Hectares": 0,
   "Category": "Cultural",
   "CategoryShort": "C",
   "Countries": "Germany"
 },
 {
   "UID": 1047,
   "ID": 896,
   "Name": "Museumsinsel (Museum Island), Berlin",
   "DateInscribed": 1999,
   "Longitude": 13.39861111,
   "Latitude": 52.51972222,
   "Hectares": 8.6,
   "Category": "Cultural",
   "CategoryShort": "C",
   "Countries": "Germany"
 },
 {
   "UID": 1048,
   "ID": 897,
   "Name": "Wartburg Castle",
   "DateInscribed": 1999,
   "Longitude": 10.307,
   "Latitude": 50.96677778,
   "Hectares": 0,
   "Category": "Cultural",
   "CategoryShort": "C",
   "Countries": "Germany"
 },
 {
   "UID": 1138,
   "ID": 974,
   "Name": "Monastic Island of Reichenau",
   "DateInscribed": 2000,
   "Longitude": 9.061305556,
   "Latitude": 47.69872222,
   "Hectares": 0,
   "Category": "Cultural",
   "CategoryShort": "C",
   "Countries": "Germany"
 },
 {
   "UID": 1139,
   "ID": 975,
   "Name": "Zollverein Coal Mine Industrial Complex in Essen",
   "DateInscribed": 2001,
   "Longitude": 7.046111111,
   "Latitude": 51.49138889,
   "Hectares": 0,
   "Category": "Cultural",
   "CategoryShort": "C",
   "Countries": "Germany"
 },
 {
   "UID": 1243,
   "ID": 1066,
   "Name": "Upper Middle Rhine Valley",
   "DateInscribed": 2002,
   "Longitude": 7.694166667,
   "Latitude": 50.17361111,
   "Hectares": 27250,
   "Category": "Cultural",
   "CategoryShort": "C",
   "Countries": "Germany"
 },
 {
   "UID": 1244,
   "ID": 1067,
   "Name": "Historic Centres of Stralsund and Wismar",
   "DateInscribed": 2002,
   "Longitude": 13.08527778,
   "Latitude": 54.3025,
   "Hectares": 168,
   "Category": "Cultural",
   "CategoryShort": "C",
   "Countries": "Germany"
 },
 {
   "UID": 1265,
   "ID": 1087,
   "Name": "Town Hall and Roland on the Marketplace of Bremen",
   "DateInscribed": 2004,
   "Longitude": 8.807472222,
   "Latitude": 53.07597222,
   "Hectares": 0.287,
   "Category": "Cultural",
   "CategoryShort": "C",
   "Countries": "Germany"
 },
 {
   "UID": 1335,
   "ID": 1155,
   "Name": "Old town of Regensburg with Stadtamhof",
   "DateInscribed": 2006,
   "Longitude": 12.09916667,
   "Latitude": 49.02055556,
   "Hectares": 182.8,
   "Category": "Cultural",
   "CategoryShort": "C",
   "Countries": "Germany"
 },
 {
   "UID": 1416,
   "ID": 1239,
   "Name": "Berlin Modernism Housing Estates",
   "DateInscribed": 2008,
   "Longitude": 13.45,
   "Latitude": 52.44833333,
   "Hectares": 88.1,
   "Category": "Cultural",
   "CategoryShort": "C",
   "Countries": "Germany"
 },
 {
   "UID": 1778,
   "ID": 1368,
   "Name": "Fagus Factory in Alfeld",
   "DateInscribed": 2011,
   "Longitude": 9.811111111,
   "Latitude": 51.98361111,
   "Hectares": 1.88,
   "Category": "Cultural",
   "CategoryShort": "C",
   "Countries": "Germany"
 },
 {
   "UID": 1799,
   "ID": 1379,
   "Name": "Margravial Opera House Bayreuth",
   "DateInscribed": 2012,
   "Longitude": 11.57861111,
   "Latitude": 49.94444444,
   "Hectares": 0.19,
   "Category": "Cultural",
   "CategoryShort": "C",
   "Countries": "Germany"
 },
 {
   "UID": 1875,
   "ID": 1413,
   "Name": "Bergpark Wilhelmshöhe",
   "DateInscribed": 2013,
   "Longitude": 9.393055556,
   "Latitude": 51.31583333,
   "Hectares": 558.7,
   "Category": "Cultural",
   "CategoryShort": "C",
   "Countries": "Germany"
 },
 {
   "UID": 1990,
   "ID": 1447,
   "Name": "Carolingian Westwork and Civitas Corvey",
   "DateInscribed": 2014,
   "Longitude": 9.41025,
   "Latitude": 51.77827778,
   "Hectares": 12,
   "Category": "Cultural",
   "CategoryShort": "C",
   "Countries": "Germany"
 },
 {
   "UID": 2028,
   "ID": 1467,
   "Name": "Speicherstadt and Kontorhaus District with Chilehaus",
   "DateInscribed": 2015,
   "Longitude": 9.999444444,
   "Latitude": 53.54555556,
   "Hectares": 26.08,
   "Category": "Cultural",
   "CategoryShort": "C",
   "Countries": "Germany"
 },
 {
   "UID": 2288,
   "ID": 1470,
   "Name": "Naumburg Cathedral",
   "DateInscribed": 2018,
   "Longitude": 11.804,
   "Latitude": 51.15480556,
   "Hectares": 1.82,
   "Category": "Cultural",
   "CategoryShort": "C",
   "Countries": "Germany"
 },